"id","bag_id","naam","lat","lon","geonames","tgn"
"1","1000","Hoogerheide","51.4392736394","4.33085041274","http://www.geonames.org/2753725","http://vocab.getty.edu/tgn/1047857"
"2","1001","Huijbergen","51.4349871938","4.37529746313","http://www.geonames.org/2753521","http://vocab.getty.edu/tgn/7265141"
"3","1014","Soesterberg","52.122189719","5.30490339174","http://www.geonames.org/2747030","http://vocab.getty.edu/tgn/1048123"
"4","1015","Vlaardingen","51.917389298","4.32786290157","http://www.geonames.org/2745467","http://vocab.getty.edu/tgn/1048190"
"5","1002","Ossendrecht","51.3950626263","4.33530210816","http://www.geonames.org/2749223","http://vocab.getty.edu/tgn/1048027"
"6","1034","Melderslo","51.4638430923","6.08989498419","http://www.geonames.org/2750979","http://vocab.getty.edu/tgn/7269827"
"7","1003","Putte","51.3733635919","4.38819605278","http://www.geonames.org/2748397","http://vocab.getty.edu/tgn/1048051"
"8","1004","Woensdrecht","51.4190947612","4.28590644373","http://www.geonames.org/2744257","http://vocab.getty.edu/tgn/1048251"
"9","1022","Waterhuizen","53.1854606328","6.648705223","http://www.geonames.org/2744974","http://vocab.getty.edu/tgn/7273924"
"10","1005","Gouda","52.0153016834","4.70620404831","http://www.geonames.org/2755420","http://vocab.getty.edu/tgn/7006805"
"11","1006","Waalre","51.3872906559","5.46486985067","http://www.geonames.org/2745127","http://vocab.getty.edu/tgn/1048210"
"12","1007","Middelburg","51.5025695718","3.61589565478","http://www.geonames.org/2750896","http://vocab.getty.edu/tgn/7006752"
"13","1008","Arnemuiden","51.5131749151","3.69060732086","http://www.geonames.org/2759664","http://vocab.getty.edu/tgn/7006756"
"14","1009","Nieuw- en Sint Joosland","51.4829936348","3.66951085837","http://www.geonames.org/2750177","http://vocab.getty.edu/tgn/7267677"
"15","1010","Etten-Leur","51.5783280135","4.64495926263","http://www.geonames.org/2755996",
"16","1011","Huizen","52.2986471966","5.24207285099","http://www.geonames.org/2753468","http://vocab.getty.edu/tgn/1047866"
"17","1012","Weesp","52.3008835278","5.06017846563","http://www.geonames.org/2744904","http://vocab.getty.edu/tgn/1048226"
"18","1013","Soest","52.1608698188","5.29510555289","http://www.geonames.org/2747034","http://vocab.getty.edu/tgn/7006928"
"19","1016","Nieuwerkerk aan den IJssel","51.9664031088","4.61844354561","http://www.geonames.org/2750263","http://vocab.getty.edu/tgn/7267334"
"20","1017","Foxhol","53.1689033363","6.71377804065","http://www.geonames.org/2755853","http://vocab.getty.edu/tgn/7261155"
"21","1018","Hoogezand","53.1436893533","6.76663205955","http://www.geonames.org/2753706","http://vocab.getty.edu/tgn/7264207"
"22","1019","Kiel-Windeweer","53.1120356331","6.77424336521","http://www.geonames.org/2744360","http://vocab.getty.edu/tgn/7265024"
"23","1020","Kropswolde","53.1413731031","6.71359132946","http://www.geonames.org/2752217","http://vocab.getty.edu/tgn/7265000"
"24","2167","Wezuperbrug","52.8389502932","6.72286728046","http://www.geonames.org/2744576","http://vocab.getty.edu/tgn/7273480"
"25","1021","Sappemeer","53.1641047357","6.79656888047","http://www.geonames.org/2747758","http://vocab.getty.edu/tgn/7269202"
"26","1035","Meterik","51.4597336808","6.01262632839","http://www.geonames.org/2750920","http://vocab.getty.edu/tgn/7269681"
"27","1023","Westerbroek","53.1831732024","6.67834615055","http://www.geonames.org/2744764","http://vocab.getty.edu/tgn/7273282"
"28","1026","America","51.4430328872","5.9629528233","http://www.geonames.org/2759831","http://vocab.getty.edu/tgn/1047611"
"29","1027","Broekhuizen","51.4789156759","6.14534223801","http://www.geonames.org/2758266","http://vocab.getty.edu/tgn/7262516"
"30","1036","Hilversum","52.2232751191","5.16793922118","http://www.geonames.org/2754064","http://vocab.getty.edu/tgn/7007042"
"31","1037","Eemnes","52.2518977024","5.28268654494","http://www.geonames.org/2756394","http://vocab.getty.edu/tgn/7261627"
"32","1038","Daarle","52.4277232093","6.53791929534","http://www.geonames.org/2757867","http://vocab.getty.edu/tgn/7262958"
"33","2175","Grootegast","53.2060430877","6.28018267634","http://www.geonames.org/2755204","http://vocab.getty.edu/tgn/7261047"
"34","2775","Biggekerke","51.4962448053","3.52645845591","http://www.geonames.org/2758956","http://vocab.getty.edu/tgn/7256595"
"35","1028","Broekhuizenvorst","51.5025522882","6.15239912919","http://www.geonames.org/2758260","http://vocab.getty.edu/tgn/7262510"
"36","1029","Griendtsveen","51.4363937669","5.90561807704","http://www.geonames.org/2755328","http://vocab.getty.edu/tgn/7029475"
"37","1033","Lottum","51.4552070498","6.1392398512","http://www.geonames.org/2751422","http://vocab.getty.edu/tgn/7265237"
"38","2177","Lutjegast","53.2383718062","6.25733102831","http://www.geonames.org/2751376","http://vocab.getty.edu/tgn/7265319"
"39","2178","Niekerk","53.2262177001","6.36812209158","http://www.geonames.org/2750390","http://vocab.getty.edu/tgn/7270319"
"40","2179","Oldekerk","53.2291479036","6.331671188","http://www.geonames.org/2749658","http://vocab.getty.edu/tgn/7267143"
"41","2180","Opende","53.168069474","6.20494051594","http://www.geonames.org/2749302","http://vocab.getty.edu/tgn/7268463"
"42","1030","Grubbenvorst","51.4253479623","6.12138366356","http://www.geonames.org/2755051","http://vocab.getty.edu/tgn/7261669"
"43","1031","Hegelsom","51.4316837686","6.03753120509","http://www.geonames.org/2754611","http://vocab.getty.edu/tgn/7266115"
"44","1032","Horst","51.4602650825","6.05833923624","http://www.geonames.org/2753591","http://vocab.getty.edu/tgn/1047863"
"45","2776","Domburg","51.5605645363","3.49315314116","http://www.geonames.org/2756746","http://vocab.getty.edu/tgn/7006751"
"46","1039","Daarlerveen","52.440408628","6.58168391263","http://www.geonames.org/2757866","http://vocab.getty.edu/tgn/7262957"
"47","1040","Haarle","52.3529728966","6.38615906185","http://www.geonames.org/2755006","http://vocab.getty.edu/tgn/7261752"
"48","1180","Spijkerboor","53.0786447174","6.76914906108","http://www.geonames.org/2746929","http://vocab.getty.edu/tgn/7271078"
"49","1043","Tilburg","51.5723256978","5.04579321552","http://www.geonames.org/2746301","http://vocab.getty.edu/tgn/7006831"
"50","1044","Berkel-Enschot","51.5769794281","5.13892891009","http://www.geonames.org/2759090",
"51","1045","Udenhout","51.6184051851","5.13656719591","http://www.geonames.org/2746003","http://vocab.getty.edu/tgn/1048159"
"52","1046","Staphorst","52.6527564318","6.20015157123","http://www.geonames.org/2746839","http://vocab.getty.edu/tgn/1048131"
"53","1376","Klooster Lidlum","53.2251289488","5.52555321312","http://www.geonames.org/2752619","http://vocab.getty.edu/tgn/7267002"
"54","1047","Rouveen","52.6128607374","6.1601165913","http://www.geonames.org/2747879","http://vocab.getty.edu/tgn/1048078"
"55","1048","IJhorst","52.6502699174","6.29963601878","http://www.geonames.org/2753381","http://vocab.getty.edu/tgn/7265560"
"56","1049","Punthorst","52.6109993518","6.2711046305","http://www.geonames.org/2748417","http://vocab.getty.edu/tgn/7269235"
"57","1050","Amstelveen","52.2892743073","4.85149291581","http://www.geonames.org/2759798","http://vocab.getty.edu/tgn/1047614"
"58","2780","Meliskerke","51.5205372806","3.52069671544","http://www.geonames.org/2750974","http://vocab.getty.edu/tgn/7269822"
"59","1051","Lelystad","52.5427693411","5.37469428982","http://www.geonames.org/2751738","http://vocab.getty.edu/tgn/7007040"
"60","1052","Naarden","52.3030671019","5.16193055022","http://www.geonames.org/2750521","http://vocab.getty.edu/tgn/7007045"
"61","1558","Mariënberg","52.510339838","6.58098537104","http://www.geonames.org/2751177","http://vocab.getty.edu/tgn/7269568"
"62","1053","Andijk","52.7518638224","5.21244550117","http://www.geonames.org/2759775","http://vocab.getty.edu/tgn/1047616"
"63","1056","Kootwijkerbroek","52.1537577726","5.6763978088","http://www.geonames.org/2752441","http://vocab.getty.edu/tgn/7264108"
"64","1057","Garderen","52.2240083135","5.70173314382","http://www.geonames.org/2755732","http://vocab.getty.edu/tgn/7261592"
"65","1062","Kootwijk","52.172542664","5.75967729773","http://www.geonames.org/2752443","http://vocab.getty.edu/tgn/7006899"
"66","1059","Stroe","52.1928911254","5.69796404139","http://www.geonames.org/2746596","http://vocab.getty.edu/tgn/7272209"
"67","1089","Hoge Hexel","52.3963310535","6.55263434427","http://www.geonames.org/2753758","http://vocab.getty.edu/tgn/7264259"
"68","1061","De Glind","52.1199345263","5.51516427293","http://www.geonames.org/2755492","http://vocab.getty.edu/tgn/7263494"
"69","1063","Achterveld","52.1393297627","5.51928576039","http://www.geonames.org/2759995","http://vocab.getty.edu/tgn/7258268"
"70","1064","Bladel","51.3560406893","5.21882214257","http://www.geonames.org/2758878","http://vocab.getty.edu/tgn/7006829"
"71","1065","Hapert","51.3464419614","5.25658328894","http://www.geonames.org/2754872","http://vocab.getty.edu/tgn/1047815"
"72","1275","Kraggenburg","52.6492887157","5.92217195414","http://www.geonames.org/2752320","http://vocab.getty.edu/tgn/7264547"
"73","1066","Hoogeloon","51.3995561247","5.27195747207","http://www.geonames.org/2753741","http://vocab.getty.edu/tgn/7264242"
"74","1067","Casteren","51.4027281525","5.23859395861","http://www.geonames.org/2757993","http://vocab.getty.edu/tgn/7262828"
"75","3414","Wierum","53.4184887363","5.99443653651","http://www.geonames.org/2744526","http://vocab.getty.edu/tgn/7273430"
"76","1068","Netersel","51.4133838049","5.20828154656","http://www.geonames.org/2750407","http://vocab.getty.edu/tgn/7270335"
"77","1069","Maassluis","51.9251995011","4.24886125415","http://www.geonames.org/2751285","http://vocab.getty.edu/tgn/7006793"
"78","1070","Groningen","53.222243388","6.56340159918","http://www.geonames.org/2755251","http://vocab.getty.edu/tgn/7006984"
"79","1071","Woerden","52.0863427689","4.87899613529","http://www.geonames.org/2744248","http://vocab.getty.edu/tgn/1048252"
"80","1072","Harmelen","52.0947671784","4.96391245214","http://www.geonames.org/2754814","http://vocab.getty.edu/tgn/1047822"
"81","1073","Kamerik","52.1263857813","4.89703852534","http://www.geonames.org/2753117","http://vocab.getty.edu/tgn/1047877"
"82","1074","Zegveld","52.1216565587","4.83610147053","http://www.geonames.org/2743990","http://vocab.getty.edu/tgn/7274051"
"83","1075","Zeewolde","52.3443838737","5.45525762192","http://www.geonames.org/2743997",
"84","1076","Oost-Souburg","51.4682266975","3.60573425813","http://www.geonames.org/2749341","http://vocab.getty.edu/tgn/1048011"
"85","1077","Ritthem","51.4350827883","3.66619079865","http://www.geonames.org/2748042","http://vocab.getty.edu/tgn/7268155"
"86","1078","Vlissingen","51.4718439062","3.43972888949","http://www.geonames.org/2745392",
"87","1090","Notter","52.3391019233","6.52046147853","http://www.geonames.org/2749784","http://vocab.getty.edu/tgn/7269094"
"88","1098","Opheusden","51.9352169268","5.62804882182","http://www.geonames.org/2749296","http://vocab.getty.edu/tgn/1048022"
"89","1099","IJzendoorn","51.9081351088","5.53017842445","http://www.geonames.org/2753347","http://vocab.getty.edu/tgn/7265742"
"90","1100","Valkenswaard","51.3237666493","5.44924744026","http://www.geonames.org/2745860","http://vocab.getty.edu/tgn/1048173"
"91","1101","Eindhoven","51.4500310098","5.45888393191","http://www.geonames.org/2756253","http://vocab.getty.edu/tgn/7006842"
"92","1219","Oeffelt","51.6980311832","5.93305297615","http://www.geonames.org/2749726","http://vocab.getty.edu/tgn/7269378"
"93","1079","Aarlanderveen","52.1325220078","4.72489712313","http://www.geonames.org/2760092","http://vocab.getty.edu/tgn/7257807"
"94","1080","Alphen aan den Rijn","52.1302399267","4.6651482984","http://www.geonames.org/2759875","http://vocab.getty.edu/tgn/1047609"
"95","1081","Zwammerdam","52.1055669676","4.72452069146","http://www.geonames.org/2743578","http://vocab.getty.edu/tgn/7274410"
"96","1082","Meppel","52.7045654142","6.20263211214","http://www.geonames.org/2750947","http://vocab.getty.edu/tgn/7006966"
"97","1083","Nijeveen","52.7358200964","6.16179115381","http://www.geonames.org/2750075","http://vocab.getty.edu/tgn/7267919"
"98","1084","Rogat","52.6872558504","6.25890494373","http://www.geonames.org/2747994","http://vocab.getty.edu/tgn/7268323"
"99","1085","De Schiphorst","52.6790838158","6.25358788281","http://www.geonames.org/2747541","http://vocab.getty.edu/tgn/7271351"
"100","1086","Broekhuizen","52.6975184497","6.26211382663","http://www.geonames.org/2758263","http://vocab.getty.edu/tgn/7262513"
"101","1680","Oudega","52.9095029011","5.51559971891","http://www.geonames.org/2749138","http://vocab.getty.edu/tgn/7269076"
"102","1087","Wierden","52.3560955522","6.56089663273","http://www.geonames.org/2744549","http://vocab.getty.edu/tgn/1048237"
"103","1088","Enter","52.2996745958","6.58801154419","http://www.geonames.org/2756065","http://vocab.getty.edu/tgn/1047768"
"104","1091","Zuna","52.3315115897","6.49519483095","http://www.geonames.org/2743622","http://vocab.getty.edu/tgn/7274326"
"105","1092","Baarn","52.2071284944","5.27134764911","http://www.geonames.org/2759544","http://vocab.getty.edu/tgn/1047629"
"106","1093","Lage Vuursche","52.1859913467","5.22518364813","http://www.geonames.org/2752018","http://vocab.getty.edu/tgn/7265703"
"107","1094","Dodewaard","51.9120788721","5.6618518589","http://www.geonames.org/2756777","http://vocab.getty.edu/tgn/7259991"
"108","1096","Kesteren","51.9340558017","5.57339055056","http://www.geonames.org/2752899","http://vocab.getty.edu/tgn/7264932"
"109","1097","Ochten","51.9106950893","5.58568607998","http://www.geonames.org/2749741","http://vocab.getty.edu/tgn/7269265"
"110","1102","Bovenkarspel","52.6994764851","5.24711212907","http://www.geonames.org/2758498","http://vocab.getty.edu/tgn/1047671"
"111","1220","Overloon","51.5744395951","5.93186279646","http://www.geonames.org/2748833","http://vocab.getty.edu/tgn/1048039"
"112","1103","Grootebroek","52.7006299096","5.22193563282","http://www.geonames.org/2755211","http://vocab.getty.edu/tgn/7261054"
"113","1221","Rijkevoort","51.6621617927","5.88950742332","http://www.geonames.org/2748125","http://vocab.getty.edu/tgn/7267680"
"114","1104","Lutjebroek","52.7002949","5.20188878732","http://www.geonames.org/2751379","http://vocab.getty.edu/tgn/7265322"
"115","1105","Capelle aan den IJssel","51.9349321894","4.5801419895","http://www.geonames.org/2758012","http://vocab.getty.edu/tgn/1047693"
"116","1377","Tzummarum","53.2394548396","5.54527995528","http://www.geonames.org/2746023","http://vocab.getty.edu/tgn/7271970"
"117","1561","Rheezerveen","52.5711617238","6.53971703596","http://www.geonames.org/2748187","http://vocab.getty.edu/tgn/7267527"
"118","1107","Zwaagdijk-Oost","52.6983367713","5.12345098958","http://www.geonames.org/2743593","http://vocab.getty.edu/tgn/7274425"
"119","1108","Nieuwegein","52.0308220205","5.09467046241","http://www.geonames.org/2750325","http://vocab.getty.edu/tgn/1047980"
"120","1109","Empe","52.1484054525","6.12256027453","http://www.geonames.org/2756118","http://vocab.getty.edu/tgn/7260090"
"121","1110","Tonden","52.1354099873","6.12757081176","http://www.geonames.org/2746217","http://vocab.getty.edu/tgn/7271779"
"122","1111","Brummen","52.1064063119","6.15950740875","http://www.geonames.org/2758177","http://vocab.getty.edu/tgn/7006893"
"123","1578","Silvolde","51.9059856449","6.40207922241","http://www.geonames.org/2747322","http://vocab.getty.edu/tgn/1048101"
"124","1579","Sinderen","51.9173421734","6.44852245048","http://www.geonames.org/2747310","http://vocab.getty.edu/tgn/7270684"
"125","1580","Ulft","51.8951996087","6.37431008708","http://www.geonames.org/2745953","http://vocab.getty.edu/tgn/1048164"
"126","1581","Etten","51.9111838771","6.32658027564","http://www.geonames.org/2755995","http://vocab.getty.edu/tgn/7260525"
"127","3516","Heesbeen","51.7304151288","5.11511977461","http://www.geonames.org/2754638","http://vocab.getty.edu/tgn/7266227"
"128","1112","Leuvenheim","52.0751107641","6.13059791749","http://www.geonames.org/2751678","http://vocab.getty.edu/tgn/7264161"
"129","1113","Hall","52.1114816649","6.09532329089","http://www.geonames.org/2754936","http://vocab.getty.edu/tgn/7262111"
"130","1114","Eerbeek","52.0949691386","6.05133499782","http://www.geonames.org/2756351","http://vocab.getty.edu/tgn/1047749"
"131","1589","Wouw","51.5280772295","4.3939826535","http://www.geonames.org/2744145","http://vocab.getty.edu/tgn/1048261"
"132","1115","Sint Pancras","52.6624288663","4.78611622993","http://www.geonames.org/2747225","http://vocab.getty.edu/tgn/1048108"
"133","1222","Sambeek","51.6303832459","5.9593642294","http://www.geonames.org/2747773","http://vocab.getty.edu/tgn/7269217"
"134","1116","Broek op Langedijk","52.6780458404","4.8036229117","http://www.geonames.org/2758245","http://vocab.getty.edu/tgn/7262638"
"135","1223","Vierlingsbeek","51.5927539705","5.99325128412","http://www.geonames.org/2745550","http://vocab.getty.edu/tgn/7272395"
"136","1117","Zuid-Scharwoude","52.6895136357","4.79865300568","http://www.geonames.org/2743658","http://vocab.getty.edu/tgn/7274362"
"137","1118","Noord-Scharwoude","52.6994508297","4.79699044536","http://www.geonames.org/2749835","http://vocab.getty.edu/tgn/7007063"
"138","1119","Oudkarspel","52.7099075568","4.7860279974","http://www.geonames.org/2748943","http://vocab.getty.edu/tgn/7267185"
"139","1120","Koedijk","52.6867990943","4.75374132249","http://www.geonames.org/2752575","http://vocab.getty.edu/tgn/7266958"
"140","1224","Vortum-Mullem","51.6164442808","5.97220577433","http://www.geonames.org/2745250","http://vocab.getty.edu/tgn/7272737"
"141","1225","Gulpen","50.8011645148","5.88144732089","http://www.geonames.org/2755045","http://vocab.getty.edu/tgn/1047808"
"142","1122","Afferden L","51.6406778765","6.02785935872","http://www.geonames.org/2759946","http://vocab.getty.edu/tgn/7258565"
"143","1121","Bergen L","51.6052571729","6.06477228679","http://www.geonames.org/2759155","http://vocab.getty.edu/tgn/7258872"
"144","1181","Vredenheim","52.9459315748","6.64350334948","http://www.geonames.org/2745206","http://vocab.getty.edu/tgn/7272822"
"145","1123","Siebengewald","51.6513424275","6.0763644847","http://www.geonames.org/2747340","http://vocab.getty.edu/tgn/7270713"
"146","1151","Annerveenschekanaal","53.0759929602","6.79635377474","http://www.geonames.org/2759724","http://vocab.getty.edu/tgn/7256360"
"147","1152","Balloo","53.001403802","6.62796228063","http://www.geonames.org/2759458","http://vocab.getty.edu/tgn/7257715"
"148","1153","Balloërveld","53.0137493223","6.64816396479",,
"149","1182","Zwolle","52.5187003139","6.11836562303","http://www.geonames.org/2743477","http://vocab.getty.edu/tgn/7007077"
"150","1254","Ellewoutsdijk","51.3828981884","3.81807674623","http://www.geonames.org/2756190","http://vocab.getty.edu/tgn/1047758"
"151","1124","Well L","51.5671412369","6.09816337937","http://www.geonames.org/2744865","http://vocab.getty.edu/tgn/1048227"
"152","1681","Oudemirdum","52.8268593011","5.52906568434","http://www.geonames.org/2749061","http://vocab.getty.edu/tgn/7269342"
"153","1125","Wellerlooi","51.5292796306","6.16379692558","http://www.geonames.org/2744859","http://vocab.getty.edu/tgn/7273119"
"154","1185","De Goorn","52.6300049993","4.9529562774","http://www.geonames.org/2757623","http://vocab.getty.edu/tgn/7263235"
"155","1126","Geldrop","51.420528","5.55638689503","http://www.geonames.org/2755619","http://vocab.getty.edu/tgn/1047781"
"156","1186","Hensbroek","52.6534469098","4.89586983957","http://www.geonames.org/2754375","http://vocab.getty.edu/tgn/7266479"
"157","1187","Obdam","52.67814622","4.90283259173","http://www.geonames.org/2749745","http://vocab.getty.edu/tgn/7269269"
"158","1276","Ens","52.6401633567","5.82134121832","http://www.geonames.org/2756072","http://vocab.getty.edu/tgn/1047766"
"159","1127","Mierlo","51.4392307131","5.61066408394","http://www.geonames.org/2750821","http://vocab.getty.edu/tgn/1047952"
"160","1128","Axel","51.2751245411","3.92517047689","http://www.geonames.org/2759594","http://vocab.getty.edu/tgn/7006749"
"161","1189","Scharwoude","52.620068495","5.01512917587","http://www.geonames.org/2747668","http://vocab.getty.edu/tgn/7271222"
"162","1190","Spierdijk","52.6560612254","4.9408940025","http://www.geonames.org/2746943","http://vocab.getty.edu/tgn/7271092"
"163","1191","Ursem","52.6286672035","4.90683542075","http://www.geonames.org/2745924","http://vocab.getty.edu/tgn/7272944"
"164","1129","Biervliet","51.3371567714","3.69417069018","http://www.geonames.org/2758980","http://vocab.getty.edu/tgn/4001510"
"165","1192","Zuidermeer","52.6666584466","4.9749628605","http://www.geonames.org/2743746","http://vocab.getty.edu/tgn/7274193"
"166","1193","Aalten","51.9275954346","6.57020946744","http://www.geonames.org/2760123","http://vocab.getty.edu/tgn/7006889"
"167","1137","Terneuzen","51.3534596261","3.80764195874","http://www.geonames.org/2746420","http://vocab.getty.edu/tgn/1048147"
"168","1130","Hoek","51.3201196542","3.7745498453","http://www.geonames.org/2754029","http://vocab.getty.edu/tgn/7266775"
"169","1131","Koewacht","51.2388782622","3.9560389103","http://www.geonames.org/2752547","http://vocab.getty.edu/tgn/7263657"
"170","1132","Overslag","51.216339334","3.90704404286","http://www.geonames.org/2748822","http://vocab.getty.edu/tgn/7267623"
"171","1194","Bredevoort","51.9438165749","6.62397734251","http://www.geonames.org/2758393","http://vocab.getty.edu/tgn/7262460"
"172","1133","Philippine","51.2865621102","3.7387784548","http://www.geonames.org/2748625","http://vocab.getty.edu/tgn/7268540"
"173","1134","Sas van Gent","51.256813206","3.80416600041","http://www.geonames.org/2747749","http://vocab.getty.edu/tgn/1048083"
"174","1202","Hempens","53.1763284178","5.84219246973","http://www.geonames.org/2754419","http://vocab.getty.edu/tgn/7266394"
"175","1203","Teerns","53.1804646297","5.83410306457","http://www.geonames.org/2746507","http://vocab.getty.edu/tgn/7271556"
"176","2200","Mastenbroek","52.5778784533","6.04544745807","http://www.geonames.org/2751106","http://vocab.getty.edu/tgn/7269770"
"177","2201","Zwartsluis","52.639020249","6.07616374835","http://www.geonames.org/2743518","http://vocab.getty.edu/tgn/1048287"
"178","1135","Sluiskil","51.2864641507","3.83987619968","http://www.geonames.org/2747109","http://vocab.getty.edu/tgn/1048118"
"179","1136","Spui","51.2968136249","3.87275876346","http://www.geonames.org/2746883","http://vocab.getty.edu/tgn/7271160"
"180","1138","Westdorpe","51.2379864402","3.8428126773","http://www.geonames.org/2744800","http://vocab.getty.edu/tgn/7273190"
"181","1215","Boxmeer","51.6484388205","5.93763765555","http://www.geonames.org/2758462","http://vocab.getty.edu/tgn/1047672"
"182","1139","Zaamslag","51.3278386324","3.92089921154","http://www.geonames.org/2744122","http://vocab.getty.edu/tgn/7274722"
"183","1140","Zuiddorpe","51.2355178892","3.89224989047","http://www.geonames.org/2743795","http://vocab.getty.edu/tgn/7274242"
"184","1141","Pijnacker","52.0150677992","4.43645237312","http://www.geonames.org/2748591","http://vocab.getty.edu/tgn/1048046"
"185","1277","Schokland","52.6399832585","5.77348457613",,"http://vocab.getty.edu/tgn/7271337"
"186","1142","Nootdorp","52.0429594839","4.40726559587","http://www.geonames.org/2749800","http://vocab.getty.edu/tgn/7269110"
"187","1143","Delfgauw","52.0031616393","4.40201950619","http://www.geonames.org/2757349","http://vocab.getty.edu/tgn/7260558"
"188","1144","Krimpen aan den IJssel","51.9146960605","4.60210425319","http://www.geonames.org/2752264","http://vocab.getty.edu/tgn/7264832"
"189","1145","Enschede","52.2208143844","6.87780854469","http://www.geonames.org/2756071","http://vocab.getty.edu/tgn/7007068"
"190","1146","Helmond","51.4761518711","5.65694856803","http://www.geonames.org/2754447","http://vocab.getty.edu/tgn/7006840"
"191","1147","Amen","52.9318072731","6.6022178526","http://www.geonames.org/2759838","http://vocab.getty.edu/tgn/7258800"
"192","1148","Anderen","53.0017644901","6.6881470592","http://www.geonames.org/2759778","http://vocab.getty.edu/tgn/7259978"
"193","1278","Nagele","52.6388723374","5.7147164837","http://www.geonames.org/2750510","http://vocab.getty.edu/tgn/1047969"
"194","1149","Anloo","53.042575915","6.70006471177","http://www.geonames.org/2759746","http://vocab.getty.edu/tgn/7256382"
"195","1150","Annen","53.0593652139","6.73896969168","http://www.geonames.org/2759729","http://vocab.getty.edu/tgn/7256365"
"196","1154","Deurze","52.9768259144","6.60308103041","http://www.geonames.org/2757001","http://vocab.getty.edu/tgn/7262026"
"197","1160","Eldersloo","52.9627648932","6.61532653194","http://www.geonames.org/2756224","http://vocab.getty.edu/tgn/7262231"
"198","1155","Eext","53.0159545595","6.73122113029","http://www.geonames.org/2756317","http://vocab.getty.edu/tgn/7261896"
"199","1156","Eexterveen","53.0516526409","6.80282933685","http://www.geonames.org/2756314","http://vocab.getty.edu/tgn/7261979"
"200","1157","Eexterveenschekanaal","53.059200581","6.82168830183","http://www.geonames.org/2756313","http://vocab.getty.edu/tgn/7261978"
"201","1161","Eleveld","52.9588982472","6.58150933188","http://www.geonames.org/2756218","http://vocab.getty.edu/tgn/7262225"
"202","1158","Eexterzandvoort","53.0378335555","6.7806528325","http://www.geonames.org/2756311","http://vocab.getty.edu/tgn/7261976"
"203","1633","Alteveer","53.1112876733","6.4338696664","http://www.geonames.org/2759861","http://vocab.getty.edu/tgn/7258823"
"204","1159","Ekehaar","52.9497368337","6.59331590056","http://www.geonames.org/2756242","http://vocab.getty.edu/tgn/7262249"
"205","1162","Gasselte","52.9736931124","6.77072879681","http://www.geonames.org/2755717","http://vocab.getty.edu/tgn/1047779"
"206","1592","Wouwse Plantage","51.4793348771","4.39777496671","http://www.geonames.org/2744140","http://vocab.getty.edu/tgn/7274740"
"207","1163","Gasselternijveen","52.9916075522","6.84302507919","http://www.geonames.org/2755712","http://vocab.getty.edu/tgn/7261700"
"208","1164","Gasselternijveenschemond","53.000457112","6.89211750884","http://www.geonames.org/2755711","http://vocab.getty.edu/tgn/7261699"
"209","1165","Gasteren","53.034553818","6.66683426245","http://www.geonames.org/2755707","http://vocab.getty.edu/tgn/7261695"
"210","1175","Oud Annerveen","53.0854942055","6.76590085851","http://www.geonames.org/2749187","http://vocab.getty.edu/tgn/7268910"
"211","1166","Geelbroek","52.9503266428","6.56873105518","http://www.geonames.org/2755691","http://vocab.getty.edu/tgn/7261679"
"212","1167","Gieten","53.003852365","6.77518435394","http://www.geonames.org/2755527","http://vocab.getty.edu/tgn/1047788"
"213","2451","Burgum","53.2001178636","5.99642307028","http://www.geonames.org/2759103","http://vocab.getty.edu/tgn/1047651"
"214","1168","Gieterveen","53.0240179505","6.84253721014","http://www.geonames.org/2755520","http://vocab.getty.edu/tgn/7262285"
"215","2487","Dijken","52.9542470107","5.70594037397","http://www.geonames.org/2756842","http://vocab.getty.edu/tgn/7263330"
"216","1169","Grolloo","52.9305130079","6.66992924315","http://www.geonames.org/2755257","http://vocab.getty.edu/tgn/7260757"
"217","2492","Idskenhuizen","52.926440579","5.70735694984","http://www.geonames.org/2753390","http://vocab.getty.edu/tgn/7265569"
"218","1170","Marwijksoord","52.9599224175","6.64626557612","http://www.geonames.org/2751108","http://vocab.getty.edu/tgn/7269644"
"219","1176","Papenvoort","52.950684676","6.71141708331","http://www.geonames.org/2748723","http://vocab.getty.edu/tgn/7268082"
"220","1171","Nieuw Annerveen","53.0693878375","6.78050324472","http://www.geonames.org/2750374","http://vocab.getty.edu/tgn/7270303"
"221","1179","Schoonloo","52.8947598272","6.70722269514","http://www.geonames.org/2747504","http://vocab.getty.edu/tgn/7271314"
"222","1172","Nieuwediep","53.0341194079","6.86535106396","http://www.geonames.org/2750335","http://vocab.getty.edu/tgn/7270391"
"223","1173","Nijlande","52.9723885451","6.62367037275","http://www.geonames.org/2750058","http://vocab.getty.edu/tgn/7268116"
"224","1174","Nooitgedacht","52.9700759423","6.68238831763","http://www.geonames.org/2750005","http://vocab.getty.edu/tgn/7268197"
"225","1177","Rolde","52.9868045083","6.64567964871","http://www.geonames.org/2747979","http://vocab.getty.edu/tgn/1048072"
"226","1178","Schipborg","53.0661808529","6.6759843512","http://www.geonames.org/2747545","http://vocab.getty.edu/tgn/7271355"
"227","1183","Avenhorn","52.618262927","4.96366402259","http://www.geonames.org/2759601","http://vocab.getty.edu/tgn/7257126"
"228","1184","Berkhout","52.6466244476","4.99710766876","http://www.geonames.org/2759070","http://vocab.getty.edu/tgn/7256168"
"229","1188","Oudendijk","52.604600216","4.98083160571","http://www.geonames.org/2749047","http://vocab.getty.edu/tgn/7269328"
"230","1195","De Heurne","51.8917609227","6.50039565275","http://www.geonames.org/2757547","http://vocab.getty.edu/tgn/7263291"
"231","1196","Dinxperlo","51.8650925639","6.48617389257","http://www.geonames.org/2756793","http://vocab.getty.edu/tgn/1047725"
"232","1198","Lekkum","53.2248884463","5.83091164724","http://www.geonames.org/2751741","http://vocab.getty.edu/tgn/7264008"
"233","1216","Groeningen","51.6119210498","5.99663949631","http://www.geonames.org/2755285","http://vocab.getty.edu/tgn/7260785"
"234","1199","Miedum","53.2361373287","5.84038055204","http://www.geonames.org/2750824","http://vocab.getty.edu/tgn/7269856"
"235","1200","Snakkerburen","53.2218959684","5.81099895964","http://www.geonames.org/2747064","http://vocab.getty.edu/tgn/7270957"
"236","1217","Holthees","51.5780392306","6.00506245357","http://www.geonames.org/2753868","http://vocab.getty.edu/tgn/7263814"
"237","1204","Swichum","53.1523335824","5.82118463418","http://www.geonames.org/2746543","http://vocab.getty.edu/tgn/7271464"
"238","1218","Maashees","51.5714623405","6.02877341153","http://www.geonames.org/2751291","http://vocab.getty.edu/tgn/7265793"
"239","1206","Wytgaard","53.1360557442","5.77927144342","http://www.geonames.org/2744453","http://vocab.getty.edu/tgn/7273485"
"240","1207","Oirschot","51.5104617395","5.31454308052","http://www.geonames.org/2749683","http://vocab.getty.edu/tgn/7006833"
"241","2781","Oostkapelle","51.573634937","3.55001618014","http://www.geonames.org/2749362","http://vocab.getty.edu/tgn/7268178"
"242","1208","Oost West en Middelbeers","51.4672158459","5.254556067",,
"243","1209","Oostvoorne","51.9175375292","4.09854951923","http://www.geonames.org/2749330","http://vocab.getty.edu/tgn/1048020"
"244","1210","Rockanje","51.8821396129","4.03973216523","http://www.geonames.org/2748029","http://vocab.getty.edu/tgn/1048068"
"245","1211","Tinte","51.8908794362","4.13494246903","http://www.geonames.org/2746284","http://vocab.getty.edu/tgn/7271717"
"246","1212","Moerkapelle","52.049236421","4.5862313666","http://www.geonames.org/2750764","http://vocab.getty.edu/tgn/7269922"
"247","1213","Zevenhuizen","52.0083271849","4.58291138618","http://www.geonames.org/2743930","http://vocab.getty.edu/tgn/7274121"
"248","1214","Beugen","51.6753055205","5.9336536933","http://www.geonames.org/2759027","http://vocab.getty.edu/tgn/7256345"
"249","1226","Ingber","50.8185116482","5.86498316715","http://www.geonames.org/2753317","http://vocab.getty.edu/tgn/7265840"
"250","1227","Reijmerstok","50.7993013083","5.84054772629","http://www.geonames.org/2748258","http://vocab.getty.edu/tgn/7267255"
"251","1228","Heijenrath","50.7763664733","5.87364484083","http://www.geonames.org/2754555","http://vocab.getty.edu/tgn/7266186"
"252","1279","Tollebeek","52.6818938069","5.64542554182","http://www.geonames.org/2746226","http://vocab.getty.edu/tgn/7271788"
"253","1229","Slenaken","50.7712576869","5.85448298244","http://www.geonames.org/2747176","http://vocab.getty.edu/tgn/4010531"
"254","1280","Espel","52.7267207645","5.58042583932","http://www.geonames.org/2756019","http://vocab.getty.edu/tgn/7260549"
"255","1230","Beutenaken","50.7820928861","5.85993630378","http://www.geonames.org/2759004","http://vocab.getty.edu/tgn/7256451"
"256","1231","Mechelen","50.7895024298","5.92065510521","http://www.geonames.org/2751077","http://vocab.getty.edu/tgn/7269526"
"257","1232","Epen","50.7660546406","5.90821828701","http://www.geonames.org/2756056","http://vocab.getty.edu/tgn/4003664"
"258","1233","Wittem","50.8109803691","5.94348468149","http://www.geonames.org/2744287","http://vocab.getty.edu/tgn/4012325"
"259","1255","Heinkenszand","51.4653985965","3.80880714518","http://www.geonames.org/2754503","http://vocab.getty.edu/tgn/7266349"
"260","1234","Eys","50.8283912392","5.94146273113","http://www.geonames.org/2755941","http://vocab.getty.edu/tgn/4003785"
"261","1235","Elkenrade","50.8400627206","5.91559418077","http://www.geonames.org/2756204","http://vocab.getty.edu/tgn/7262339"
"262","1236","Wijlre","50.8328688376","5.88901205505","http://www.geonames.org/2744477","http://vocab.getty.edu/tgn/7031463"
"263","1237","Dalfsen","52.5125859525","6.26933330306","http://www.geonames.org/2757850","http://vocab.getty.edu/tgn/1047701"
"264","1238","Lemelerveld","52.4453747248","6.33436051014","http://www.geonames.org/2751732","http://vocab.getty.edu/tgn/7263999"
"265","1239","Nieuwleusen","52.5769309473","6.26314623457","http://www.geonames.org/2750161","http://vocab.getty.edu/tgn/7267661"
"266","1240","Veendam","53.097690969","6.90266861783","http://www.geonames.org/2745783","http://vocab.getty.edu/tgn/1048176"
"267","1256","Hoedekenskerke","51.4260829242","3.92491119141","http://www.geonames.org/2754035","http://vocab.getty.edu/tgn/1047850"
"268","1241","Wildervank","53.0667997428","6.86067973304","http://www.geonames.org/2744431","http://vocab.getty.edu/tgn/1048243"
"269","1242","Borgercompagnie","53.1086664662","6.82214785574","http://www.geonames.org/2758618","http://vocab.getty.edu/tgn/7258240"
"270","1243","Heiloo","52.5998550669","4.70857270718","http://www.geonames.org/2754516","http://vocab.getty.edu/tgn/1047838"
"271","1257","Kwadendamme","51.4349804107","3.87688742401","http://www.geonames.org/2752141","http://vocab.getty.edu/tgn/7265268"
"272","1244","Moordrecht","51.99808807","4.65236747539","http://www.geonames.org/2750613","http://vocab.getty.edu/tgn/1047962"
"273","1245","0","52.0720700308","4.2930180141","http://www.geonames.org/2747373",
"274","1246","Oudenbosch","51.5910205568","4.53578074339","http://www.geonames.org/2749053","http://vocab.getty.edu/tgn/1048035"
"275","1281","Creil","52.7683109371","5.56594313094","http://www.geonames.org/2757886",
"276","1247","Stampersgat","51.6077750027","4.44255070474","http://www.geonames.org/2746846","http://vocab.getty.edu/tgn/7271122"
"277","1248","Oud Gastel","51.5875053902","4.47831488371","http://www.geonames.org/2748956","http://vocab.getty.edu/tgn/1048030"
"278","1536","Keijenborg","52.0297748024","6.29247610022","http://www.geonames.org/2752986","http://vocab.getty.edu/tgn/7264463"
"279","1249","Bosschenhoofd","51.5611055053","4.54493685261","http://www.geonames.org/2758540","http://vocab.getty.edu/tgn/7258506"
"280","1250","Hoeven","51.5963527609","4.57658131828","http://www.geonames.org/2753982","http://vocab.getty.edu/tgn/7266855"
"281","1251","Baarland","51.3990741048","3.90029404802","http://www.geonames.org/2759562","http://vocab.getty.edu/tgn/7257215"
"282","1252","Borssele","51.4197350013","3.75106042541","http://www.geonames.org/2758587","http://vocab.getty.edu/tgn/7258209"
"283","1253","Driewegen","51.4122529089","3.79478250158","http://www.geonames.org/2756572","http://vocab.getty.edu/tgn/7260903"
"284","1258","Lewedorp","51.488303718","3.74519466693","http://www.geonames.org/2751668","http://vocab.getty.edu/tgn/1047914"
"285","1265","0","51.4556001661","3.77387462083","http://www.geonames.org/2747355","http://vocab.getty.edu/tgn/1047591"
"286","1259","Nieuwdorp","51.4590475945","3.72913607737","http://www.geonames.org/2750356","http://vocab.getty.edu/tgn/7270285"
"287","1266","Haren Gn","53.1704461685","6.60098544463","http://www.geonames.org/2754841","http://vocab.getty.edu/tgn/1047819"
"288","1537","Ane","52.6131998367","6.634392055","http://www.geonames.org/2759772","http://vocab.getty.edu/tgn/7256280"
"289","1538","Anerveen","52.632413957","6.65218191602","http://www.geonames.org/2759771","http://vocab.getty.edu/tgn/7256279"
"290","1260","Nisse","51.4483860737","3.85129685665","http://www.geonames.org/2750033","http://vocab.getty.edu/tgn/7268219"
"291","1261","Oudelande","51.3970504777","3.85468112195","http://www.geonames.org/2749086","http://vocab.getty.edu/tgn/7269367"
"292","1262","Ovezande","51.4346388737","3.80431843529","http://www.geonames.org/2748803","http://vocab.getty.edu/tgn/7267818"
"293","1272","Bant","52.771146786","5.75755603652","http://www.geonames.org/2759434","http://vocab.getty.edu/tgn/7257906"
"294","1263","0","51.4566807822","3.90350591766","http://www.geonames.org/2747366","http://vocab.getty.edu/tgn/7270611"
"295","1264","0","51.4730711774","3.86186539375","http://www.geonames.org/2747359",
"296","1273","Luttelgeest","52.7532017353","5.85097029036","http://www.geonames.org/2751361","http://vocab.getty.edu/tgn/7265520"
"297","1267","Glimmen","53.1358792213","6.6284711396","http://www.geonames.org/2755495","http://vocab.getty.edu/tgn/7263497"
"298","3135","Loo Gld","51.9332715583","5.9666850365","http://www.geonames.org/2751482","http://vocab.getty.edu/tgn/7264866"
"299","3136","Haalderen","51.8872500002","5.92701663798","http://www.geonames.org/2755026","http://vocab.getty.edu/tgn/7261644"
"300","1268","Noordlaren","53.1267015661","6.66513172383","http://www.geonames.org/2749857","http://vocab.getty.edu/tgn/7268824"
"301","3137","Ressen","51.8914867962","5.86891733027","http://www.geonames.org/2748224","http://vocab.getty.edu/tgn/7267436"
"302","1269","Onnen","53.1572725778","6.65530845566","http://www.geonames.org/2749588","http://vocab.getty.edu/tgn/7267288"
"303","1274","Marknesse","52.7044845919","5.89035022039","http://www.geonames.org/2751147","http://vocab.getty.edu/tgn/1047936"
"304","1270","Almere","52.4025383993","5.20554213134","http://www.geonames.org/2759879","http://vocab.getty.edu/tgn/7007140"
"305","1271","Emmeloord","52.7130881709","5.75753180005","http://www.geonames.org/2756139","http://vocab.getty.edu/tgn/7007037"
"306","1282","Rutten","52.8116758781","5.71041355992","http://www.geonames.org/2747796","http://vocab.getty.edu/tgn/7269027"
"307","1283","Albergen","52.3622637477","6.75033029293","http://www.geonames.org/2759919","http://vocab.getty.edu/tgn/7258539"
"308","1286","Haarle","52.4067301554","6.8365182244","http://www.geonames.org/2755005","http://vocab.getty.edu/tgn/7261751"
"309","1284","Fleringen","52.3773531485","6.80366283109","http://www.geonames.org/2755896","http://vocab.getty.edu/tgn/7260981"
"310","1285","Geesteren","52.4232149495","6.72005635818","http://www.geonames.org/2755652","http://vocab.getty.edu/tgn/7261857"
"311","1287","Harbrinkhoek","52.3848576576","6.71845006655","http://www.geonames.org/2754866","http://vocab.getty.edu/tgn/7262385"
"312","1288","Hezingen","52.4387147929","6.88298059586","http://www.geonames.org/2754107","http://vocab.getty.edu/tgn/7266727"
"313","1305","Zandvoort","52.3597505144","4.53453385765","http://www.geonames.org/2744042","http://vocab.getty.edu/tgn/1048265"
"314","1289","Langeveen","52.4588147792","6.72540276687","http://www.geonames.org/2751911","http://vocab.getty.edu/tgn/7267049"
"315","1306","Bentveld","52.3673144583","4.57218610118","http://www.geonames.org/2759175","http://vocab.getty.edu/tgn/7258764"
"316","1290","Mander","52.444451341","6.82338800774","http://www.geonames.org/2751222","http://vocab.getty.edu/tgn/7265939"
"317","1598","Rozenburg","52.2792726925","4.73250570584","http://www.geonames.org/2747869","http://vocab.getty.edu/tgn/7268758"
"318","1291","Manderveen","52.4491696242","6.78225976188","http://www.geonames.org/2751221","http://vocab.getty.edu/tgn/7265938"
"319","1292","Mariaparochie","52.3803208565","6.70678973769","http://www.geonames.org/2751187","http://vocab.getty.edu/tgn/7269578"
"320","3257","Huisseling","51.7836342902","5.64399202744","http://www.geonames.org/2753505","http://vocab.getty.edu/tgn/7265125"
"321","1293","Reutum","52.382818447","6.84423673802","http://www.geonames.org/2748209","http://vocab.getty.edu/tgn/7267421"
"322","1294","Tubbergen","52.4058464362","6.78162590976","http://www.geonames.org/2746133","http://vocab.getty.edu/tgn/1048154"
"323","2901","Mastenbroek","52.5631861425","5.99608278911","http://www.geonames.org/2751106","http://vocab.getty.edu/tgn/7269770"
"324","1295","Vasse","52.4244346252","6.83052292032","http://www.geonames.org/2745799","http://vocab.getty.edu/tgn/7273076"
"325","1296","Arnhem","52.0011560645","5.89259157541","http://www.geonames.org/2759661","http://vocab.getty.edu/tgn/7006876"
"326","1297","Zevenaar","51.9353604152","6.0785225821","http://www.geonames.org/2743949","http://vocab.getty.edu/tgn/1048268"
"327","1348","Froombosch","53.1964095312","6.7722741963","http://www.geonames.org/2755801","http://vocab.getty.edu/tgn/7261449"
"328","1298","Babberich","51.9070638691","6.12490836791","http://www.geonames.org/2759529","http://vocab.getty.edu/tgn/7257465"
"329","1299","Angerlo","51.9835466598","6.11851615768","http://www.geonames.org/2759764","http://vocab.getty.edu/tgn/7256272"
"330","1300","Giesbeek","51.9925921236","6.07308021314","http://www.geonames.org/2755536","http://vocab.getty.edu/tgn/7262301"
"331","1350","Hellum","53.2494131261","6.83191335753","http://www.geonames.org/2754449","http://vocab.getty.edu/tgn/7266424"
"332","1301","Lathum","51.990518447","6.03532578292","http://www.geonames.org/2751867","http://vocab.getty.edu/tgn/7263449"
"333","1302","Wijk bij Duurstede","51.9743025263","5.32372203027","http://www.geonames.org/2744483","http://vocab.getty.edu/tgn/7017400"
"334","1303","Langbroek","52.0032807055","5.35004367057","http://www.geonames.org/2750473","http://vocab.getty.edu/tgn/7270274"
"335","1304","Cothen","51.9937561584","5.2898175907","http://www.geonames.org/2757899","http://vocab.getty.edu/tgn/7262862"
"336","1307","Hilvarenbeek","51.4973194289","5.10905165332","http://www.geonames.org/2754066","http://vocab.getty.edu/tgn/1047846"
"337","1351","Kolham","53.1844460994","6.74423815026","http://www.geonames.org/2752534","http://vocab.getty.edu/tgn/7263644"
"338","1308","Diessen","51.4685565346","5.1856595421","http://www.geonames.org/2756859","http://vocab.getty.edu/tgn/7263347"
"339","1309","Biest-Houtakker","51.5071935822","5.15684506561","http://www.geonames.org/2758969",
"340","1310","Haghorst","51.5008685002","5.21118623286","http://www.geonames.org/2754959","http://vocab.getty.edu/tgn/7261920"
"341","1311","Esbeek","51.450985702","5.1294552088","http://www.geonames.org/2756031","http://vocab.getty.edu/tgn/7260433"
"342","1312","Heerlen","50.8880220196","5.97858305931","http://www.geonames.org/2754652","http://vocab.getty.edu/tgn/7006860"
"343","1313","Hoensbroek","50.9189092784","5.92528177935","http://www.geonames.org/2753996","http://vocab.getty.edu/tgn/1047852"
"344","1314","Heeze","51.3887838496","5.57773763789","http://www.geonames.org/2754618","http://vocab.getty.edu/tgn/1047837"
"345","1315","Leende","51.333610272","5.53267478076","http://www.geonames.org/2751821","http://vocab.getty.edu/tgn/1047904"
"346","3258","Koolwijk","51.7690359644","5.60210294563","http://www.geonames.org/2755118",
"347","1316","Sterksel","51.3546499898","5.62332641236","http://www.geonames.org/2746730","http://vocab.getty.edu/tgn/7272083"
"348","1317","Willemstad","51.6877165934","4.44705188004","http://www.geonames.org/2744388","http://vocab.getty.edu/tgn/7006828"
"349","1318","Heijningen","51.6595314894","4.40964558158","http://www.geonames.org/2754553","http://vocab.getty.edu/tgn/7266270"
"350","1319","Klundert","51.6683055373","4.53506902773","http://www.geonames.org/2752600","http://vocab.getty.edu/tgn/1047888"
"351","1320","Oudemolen","51.6637797958","4.46236007964","http://www.geonames.org/2749058","http://vocab.getty.edu/tgn/7269339"
"352","1321","Fijnaart","51.6378891734","4.4727877408","http://www.geonames.org/2755911","http://vocab.getty.edu/tgn/1047775"
"353","1322","Moerdijk","51.689712693","4.60685579122","http://www.geonames.org/2750769","http://vocab.getty.edu/tgn/1047957"
"354","2650","Eygelshoven","50.896278972","6.0635230651","http://www.geonames.org/2756285","http://vocab.getty.edu/tgn/7262078"
"355","1323","Zevenbergen","51.6495186146","4.60360943248","http://www.geonames.org/2743947","http://vocab.getty.edu/tgn/1048269"
"356","3259","Dieden","51.8178701703","5.60154240462","http://www.geonames.org/2756892","http://vocab.getty.edu/tgn/7262270"
"357","1324","Standdaarbuiten","51.6249436603","4.52642664112","http://www.geonames.org/2746845","http://vocab.getty.edu/tgn/7271121"
"358","1325","Noordhoek","51.6418934369","4.53001353238","http://www.geonames.org/2749883","http://vocab.getty.edu/tgn/7268848"
"359","3260","Demen","51.8125226396","5.62987911403","http://www.geonames.org/2757292","http://vocab.getty.edu/tgn/7260846"
"360","3261","Neerlangel","51.8063690279","5.64495980098","http://www.geonames.org/6544847",
"361","1326","Langeweg","51.644791077","4.66043879725","http://www.geonames.org/2751902","http://vocab.getty.edu/tgn/7267040"
"362","1360","Tjuchem","53.2773473181","6.87993365357","http://www.geonames.org/2746264","http://vocab.getty.edu/tgn/7271697"
"363","1361","Woudbloem","53.2220692038","6.74135861435","http://www.geonames.org/2744164","http://vocab.getty.edu/tgn/7274636"
"364","1362","Tzum","53.1499744473","5.56445453073","http://www.geonames.org/2746024","http://vocab.getty.edu/tgn/7271971"
"365","3262","Neerloon","51.7866748825","5.67573628688","http://www.geonames.org/2750441","http://vocab.getty.edu/tgn/7270241"
"366","3263","Overlangel","51.7742812902","5.67222775128","http://www.geonames.org/2748834","http://vocab.getty.edu/tgn/7267635"
"367","1327","Zevenbergschen Hoek","51.6738750398","4.67353949787","http://www.geonames.org/2743944","http://vocab.getty.edu/tgn/1048270"
"368","1328","Landsmeer","52.445745672","4.9285793328","http://www.geonames.org/2751980","http://vocab.getty.edu/tgn/1047900"
"369","1329","Den Ilp","52.4578256599","4.90493915422","http://www.geonames.org/2757204","http://vocab.getty.edu/tgn/7261104"
"370","1590","Heerle","51.5168485665","4.3651390848","http://www.geonames.org/2754653","http://vocab.getty.edu/tgn/7266242"
"371","1330","Purmerland","52.4800589851","4.91775937484","http://www.geonames.org/2748410","http://vocab.getty.edu/tgn/7269228"
"372","3264","Keent","51.7717533409","5.69034454992","http://www.geonames.org/2752992","http://vocab.getty.edu/tgn/7264469"
"373","3265","Broeksterwâld","53.2700821781","5.97940023455","http://www.geonames.org/2758239","http://vocab.getty.edu/tgn/7262632"
"374","1331","Bussum","52.2701801198","5.16504793733","http://www.geonames.org/2758064","http://vocab.getty.edu/tgn/1047690"
"375","1332","Abcoude","52.2714046866","4.97260599528","http://www.geonames.org/2760067","http://vocab.getty.edu/tgn/1047599"
"376","1333","Baambrugge","52.2470120985","4.99005876297","http://www.geonames.org/2759572","http://vocab.getty.edu/tgn/7257225"
"377","1334","Almen","52.1624686547","6.29012863192","http://www.geonames.org/2759884","http://vocab.getty.edu/tgn/7258718"
"378","1335","Barchem","52.1228763394","6.44185607838","http://www.geonames.org/2759429","http://vocab.getty.edu/tgn/7257901"
"379","1336","Eefde","52.1710185873","6.22986081846","http://www.geonames.org/2756418","http://vocab.getty.edu/tgn/1047747"
"380","1337","Epse","52.2223557581","6.2146211229","http://www.geonames.org/2756050","http://vocab.getty.edu/tgn/7260236"
"381","1603","Burgerveen","52.2416009919","4.67698979443","http://www.geonames.org/2758085","http://vocab.getty.edu/tgn/7262791"
"382","1338","Gorssel","52.1956463884","6.19700982809","http://www.geonames.org/2755428","http://vocab.getty.edu/tgn/7260156"
"383","1339","Harfsen","52.1957165932","6.29084878395","http://www.geonames.org/2754835","http://vocab.getty.edu/tgn/7262355"
"384","3266","Damwâld","53.2939159211","5.99235376386","http://www.geonames.org/2757838",
"385","1340","Joppe","52.2055081914","6.24385351072","http://www.geonames.org/2753203","http://vocab.getty.edu/tgn/7263689"
"386","1341","Kring van Dorth","52.2273754972","6.32255521798","http://www.geonames.org/2752261","http://vocab.getty.edu/tgn/7264829"
"387","1342","Laren","52.202640425","6.38208833335","http://www.geonames.org/2751875","http://vocab.getty.edu/tgn/7263457"
"388","1343","Lochem","52.1598944077","6.41285678407","http://www.geonames.org/2751537","http://vocab.getty.edu/tgn/1047920"
"389","1344","Epe","52.3574141015","5.95839933356","http://www.geonames.org/2756059","http://vocab.getty.edu/tgn/1047769"
"390","1345","Vaassen","52.2868575537","5.93224815041","http://www.geonames.org/2745892","http://vocab.getty.edu/tgn/7006901"
"391","3292","Tuitjenhorn","52.7361527452","4.75539725335","http://www.geonames.org/2746121","http://vocab.getty.edu/tgn/7271939"
"392","1346","Emst","52.317587697","5.94621899753","http://www.geonames.org/2756114","http://vocab.getty.edu/tgn/7260086"
"393","3297","De Meern","52.0776692968","5.02740844956","http://www.geonames.org/2757295","http://vocab.getty.edu/tgn/7260848"
"394","3298","Haarzuilens","52.1246357665","4.99227511674","http://www.geonames.org/2754981","http://vocab.getty.edu/tgn/4004715"
"395","1347","Oene","52.3451340547","6.05542856387","http://www.geonames.org/2749712","http://vocab.getty.edu/tgn/7270468"
"396","1349","Harkstede","53.2182858055","6.68974533227","http://www.geonames.org/2754819","http://vocab.getty.edu/tgn/7266099"
"397","1352","Lageland","53.2432700647","6.69631051378","http://www.geonames.org/2752034","http://vocab.getty.edu/tgn/7265719"
"398","1365","Herbaijum","53.1858326251","5.49541643118","http://www.geonames.org/2754366","http://vocab.getty.edu/tgn/7266470"
"399","1366","Franeker","53.183409058","5.5466116579","http://www.geonames.org/2755845","http://vocab.getty.edu/tgn/7007016"
"400","1353","Luddeweer","53.2496696124","6.73879355354","http://www.geonames.org/2751398","http://vocab.getty.edu/tgn/7265341"
"401","1354","Overschild","53.2724456356","6.78108274243","http://www.geonames.org/2748825",
"402","1539","Anevelde","52.5970714709","6.64008442977","http://www.geonames.org/2759770","http://vocab.getty.edu/tgn/7256278"
"403","1540","Balkbrug","52.6133192775","6.36513267085","http://www.geonames.org/2759470","http://vocab.getty.edu/tgn/1047633"
"404","1355","Scharmer","53.1995273024","6.71654806601","http://www.geonames.org/2747677","http://vocab.getty.edu/tgn/7269466"
"405","1541","Bergentheim","52.5198057532","6.61911986141","http://www.geonames.org/2759141","http://vocab.getty.edu/tgn/7259965"
"406","1356","Schildwolde","53.2372162226","6.80615326778","http://www.geonames.org/2747570","http://vocab.getty.edu/tgn/1048091"
"407","1542","Brucht","52.5465850679","6.61526616111","http://www.geonames.org/2758206","http://vocab.getty.edu/tgn/7262727"
"408","1357","Siddeburen","53.2452312589","6.87748960667","http://www.geonames.org/2747343","http://vocab.getty.edu/tgn/1048099"
"409","1367","Zweins","53.190623825","5.60286121762","http://www.geonames.org/2743507","http://vocab.getty.edu/tgn/7274467"
"410","1358","Slochteren","53.2136330921","6.79157273484","http://www.geonames.org/2747143","http://vocab.getty.edu/tgn/1048115"
"411","3299","Vlieland","53.2197317372","5.03462657784","http://www.geonames.org/2749334","http://vocab.getty.edu/tgn/1048012"
"412","1359","Steendam","53.2776200396","6.84646255269","http://www.geonames.org/2746797","http://vocab.getty.edu/tgn/7272023"
"413","1363","Hitzum","53.1640403714","5.51816630877","http://www.geonames.org/2754044","http://vocab.getty.edu/tgn/7266791"
"414","1364","Achlum","53.1523762518","5.49803373297","http://www.geonames.org/2760053","http://vocab.getty.edu/tgn/7258110"
"415","1375","Oosterbierum","53.2372745697","5.50963112752","http://www.geonames.org/2749500","http://vocab.getty.edu/tgn/7267544"
"416","1368","Peins","53.2067098741","5.59882663014","http://www.geonames.org/2748674","http://vocab.getty.edu/tgn/7268247"
"417","1369","Schalsum","53.1991545466","5.57596016982","http://www.geonames.org/2747698","http://vocab.getty.edu/tgn/7269487"
"418","1370","Ried","53.2205684376","5.58905443745","http://www.geonames.org/2748168","http://vocab.getty.edu/tgn/7267595"
"419","1371","Boer","53.213365902","5.56322257365","http://www.geonames.org/2758747","http://vocab.getty.edu/tgn/7257683"
"420","1372","Dongjum","53.2091153311","5.542114747","http://www.geonames.org/2756719","http://vocab.getty.edu/tgn/7260277"
"421","1373","Sexbierum","53.2191514881","5.49103803208","http://www.geonames.org/2747380","http://vocab.getty.edu/tgn/7270625"
"422","1374","Pietersbierum","53.2132492487","5.46003508928","http://www.geonames.org/2748598","http://vocab.getty.edu/tgn/7268515"
"423","1378","Firdgum","53.247656119","5.56218530954","http://www.geonames.org/2755902","http://vocab.getty.edu/tgn/7260987"
"424","1379","Olst","52.3372643649","6.13295236438","http://www.geonames.org/2749626","http://vocab.getty.edu/tgn/1048007"
"425","1380","Wijhe","52.4016655174","6.17041623002","http://www.geonames.org/2744489","http://vocab.getty.edu/tgn/1048240"
"426","1381","Wesepe","52.3330642386","6.20408226277","http://www.geonames.org/2744818","http://vocab.getty.edu/tgn/7273208"
"427","1382","Welsum","52.3288536681","6.08759192983","http://www.geonames.org/2744846","http://vocab.getty.edu/tgn/7273106"
"428","1383","Marle","52.4147177247","6.12351394406","http://www.geonames.org/2751139","http://vocab.getty.edu/tgn/7269530"
"429","1384","Veldhoven","51.4118948495","5.38325245","http://www.geonames.org/2745706","http://vocab.getty.edu/tgn/1048182"
"430","1385","Abbenbroek","51.841002142","4.22608299264","http://www.geonames.org/2760075","http://vocab.getty.edu/tgn/7257918"
"431","1417","Weerselo","52.3444079106","6.86661109872","http://www.geonames.org/2744915","http://vocab.getty.edu/tgn/7273867"
"432","1386","Geervliet","51.8538080808","4.26453198684","http://www.geonames.org/2755666","http://vocab.getty.edu/tgn/7261870"
"433","1387","Heenvliet","51.85989311","4.22398900005","http://www.geonames.org/2754687","http://vocab.getty.edu/tgn/7266007"
"434","1422","Drieborg","53.2674381723","7.1740013179","http://www.geonames.org/2756616","http://vocab.getty.edu/tgn/7260731"
"435","1388","Oudenhoorn","51.815823359","4.18431487362","http://www.geonames.org/2749044","http://vocab.getty.edu/tgn/7269325"
"436","1423","Oudezijl","53.1865774087","7.19922437714","http://www.geonames.org/2748962","http://vocab.getty.edu/tgn/7267204"
"437","1389","Simonshaven","51.8261472353","4.28667816695","http://www.geonames.org/2747316","http://vocab.getty.edu/tgn/7270690"
"438","1390","Zuidland","51.8073744339","4.23739198352","http://www.geonames.org/2743683","http://vocab.getty.edu/tgn/7274259"
"439","1475","Steyl","51.3345154606","6.12454609831","http://www.geonames.org/2746751",
"440","1476","Belfeld","51.3058495492","6.12469868563","http://www.geonames.org/2759256","http://vocab.getty.edu/tgn/1047641"
"441","1392","Breukelen","52.1680388027","4.9994740667","http://www.geonames.org/2758333","http://vocab.getty.edu/tgn/1047677"
"442","1393","Kockengen","52.1524237307","4.94995689227","http://www.geonames.org/2752581","http://vocab.getty.edu/tgn/7029525"
"443","1394","Nieuwer Ter Aa","52.2009858884","4.97510240715","http://www.geonames.org/2750254","http://vocab.getty.edu/tgn/7267325"
"444","1395","Zutphen","52.1353957744","6.20794151493","http://www.geonames.org/2743608","http://vocab.getty.edu/tgn/7006897"
"445","1396","Warnsveld","52.1378006311","6.27397800818","http://www.geonames.org/2745003","http://vocab.getty.edu/tgn/1048221"
"446","2498","Oldeouwer","52.9078881946","5.79260381844","http://www.geonames.org/2749640","http://vocab.getty.edu/tgn/7267125"
"447","1397","Oude Pekela","53.096618342","7.00117660394","http://www.geonames.org/2749034","http://vocab.getty.edu/tgn/1048033"
"448","1398","Nieuwe Pekela","53.0546494149","6.95567700665","http://www.geonames.org/2750272","http://vocab.getty.edu/tgn/7006981"
"449","1399","Rhenen","51.9772303759","5.57517506164","http://www.geonames.org/2748185","http://vocab.getty.edu/tgn/7006915"
"450","1400","Elst Ut","51.9924976707","5.51189774399","http://www.geonames.org/2756160","http://vocab.getty.edu/tgn/7263404"
"451","1401","De Heen","51.6110189984","4.25290033739","http://www.geonames.org/2757574","http://vocab.getty.edu/tgn/7263190"
"452","1402","Dinteloord","51.6266656721","4.34699902333","http://www.geonames.org/2756800","http://vocab.getty.edu/tgn/1047724"
"453","1403","Kruisland","51.5720814622","4.40223173139","http://www.geonames.org/2752192","http://vocab.getty.edu/tgn/1047897"
"454","1404","Nieuw-Vossemeer","51.5867620476","4.22642971721","http://www.geonames.org/2750117","http://vocab.getty.edu/tgn/7267961"
"455","1405","Steenbergen","51.5765054869","4.32526189074","http://www.geonames.org/2746804","http://vocab.getty.edu/tgn/1048134"
"456","1406","Maastricht","50.8529681691","5.69953030305","http://www.geonames.org/2751283","http://vocab.getty.edu/tgn/7006862"
"457","1407","Agelo","52.3876580463","6.89127794453",,
"458","1408","Denekamp","52.388780712","7.0132024942","http://www.geonames.org/2757232","http://vocab.getty.edu/tgn/1047715"
"459","1409","Deurningen","52.3014518416","6.85569669282","http://www.geonames.org/2757006","http://vocab.getty.edu/tgn/7261903"
"460","1410","Lattrop-Breklenkamp","52.4341609508","6.98674011579",,
"461","1411","Nutter","52.4199672674","6.87102043493","http://www.geonames.org/2749751","http://vocab.getty.edu/tgn/7269275"
"462","1412","Ootmarsum","52.4089669452","6.899548465","http://www.geonames.org/2749317","http://vocab.getty.edu/tgn/1048021"
"463","1413","Oud Ootmarsum","52.4235584642","6.91629024581","http://www.geonames.org/2748918","http://vocab.getty.edu/tgn/7267374"
"464","1414","Rossum","52.3604084187","6.92986182556","http://www.geonames.org/2747907","http://vocab.getty.edu/tgn/7268579"
"465","1415","Saasveld","52.336505562","6.80305983198","http://www.geonames.org/2747786","http://vocab.getty.edu/tgn/7269017"
"466","1416","Tilligte","52.4058160976","6.94790501546","http://www.geonames.org/2746297","http://vocab.getty.edu/tgn/7271730"
"467","1419","Finsterwolde","53.2351062813","7.11208617344","http://www.geonames.org/2755905","http://vocab.getty.edu/tgn/1047776"
"468","1420","Bad Nieuweschans","53.1680589564","7.18386281075","http://www.geonames.org/2750250",
"469","2908","Spaarndam gem. Haarlem","52.4147804632","4.67414085679","http://www.geonames.org/2746986","http://vocab.getty.edu/tgn/7271007"
"470","1421","Nieuw Beerta","53.1871655015","7.16480142178","http://www.geonames.org/2750372","http://vocab.getty.edu/tgn/7270301"
"471","2508","Sintjohannesga","52.9327338802","5.86988247651","http://www.geonames.org/2747257","http://vocab.getty.edu/tgn/7270764"
"472","1425","Biezenmortel","51.6241354549","5.17865297386","http://www.geonames.org/2758958","http://vocab.getty.edu/tgn/7256597"
"473","2509","Snikzwaag","52.9872271635","5.79199750119","http://www.geonames.org/2747048","http://vocab.getty.edu/tgn/7270941"
"474","2909","Eelde","53.1306010542","6.57415988527","http://www.geonames.org/2756408","http://vocab.getty.edu/tgn/1047748"
"475","2910","Paterswolde","53.1531230849","6.55910279152","http://www.geonames.org/2748702","http://vocab.getty.edu/tgn/1048042"
"476","2911","Eelderwolde","53.1788752241","6.53558116326","http://www.geonames.org/2756405","http://vocab.getty.edu/tgn/7261638"
"477","1426","Esch","51.616236737","5.2914868129","http://www.geonames.org/2756030","http://vocab.getty.edu/tgn/7260432"
"478","1427","Haaren","51.6045505102","5.22939814652","http://www.geonames.org/2755009","http://vocab.getty.edu/tgn/1047811"
"479","1428","Helvoirt","51.6443426735","5.20622312333","http://www.geonames.org/2754440","http://vocab.getty.edu/tgn/1047843"
"480","1429","Vaals","50.7663856683","6.00002820634","http://www.geonames.org/2745906","http://vocab.getty.edu/tgn/7007075"
"481","1430","Lemiers","50.7833508052","5.98342609503","http://www.geonames.org/2751730","http://vocab.getty.edu/tgn/4006295"
"482","1431","Vijlen","50.7774636378","5.95516051208","http://www.geonames.org/2745522","http://vocab.getty.edu/tgn/4011801"
"483","1432","Arkel","51.8656508807","4.9983052961","http://www.geonames.org/2759673","http://vocab.getty.edu/tgn/7256631"
"484","1433","Giessenburg","51.8567064014","4.88291624516","http://www.geonames.org/2755533","http://vocab.getty.edu/tgn/7262298"
"485","1434","Hoogblokland","51.8812620213","4.97627563342","http://www.geonames.org/2753789","http://vocab.getty.edu/tgn/7263947"
"486","1435","Hoornaar","51.8733277046","4.93881645733","http://www.geonames.org/2753634","http://vocab.getty.edu/tgn/7264694"
"487","1436","Noordeloos","51.9019734646","4.94336413668","http://www.geonames.org/2749967","http://vocab.getty.edu/tgn/7268374"
"488","3398","Hiaure","53.3502472477","5.97343292727","http://www.geonames.org/2754106","http://vocab.getty.edu/tgn/7266726"
"489","1437","Schelluinen","51.8500147304","4.92888425471","http://www.geonames.org/2747636","http://vocab.getty.edu/tgn/7271190"
"490","1438","Ambt Delden","52.2649312306","6.67027281354",,
"491","1439","Bentelo","52.2179434085","6.68746409764","http://www.geonames.org/2759180","http://vocab.getty.edu/tgn/7258769"
"492","1551","Heemserveen","52.5875808404","6.56412961406","http://www.geonames.org/2754698","http://vocab.getty.edu/tgn/7266018"
"493","1440","Delden","52.2587452457","6.70581136332","http://www.geonames.org/2757370","http://vocab.getty.edu/tgn/7006933"
"494","1441","Diepenheim","52.1918257043","6.57660283199","http://www.geonames.org/2756878","http://vocab.getty.edu/tgn/1047720"
"495","1604","Schiphol-Rijk","52.2819072372","4.76039457802",,
"496","1442","Goor","52.2378066789","6.5896491106","http://www.geonames.org/2755449","http://vocab.getty.edu/tgn/1047794"
"497","1605","Leimuiderbrug","52.2352623657","4.6640227889","http://www.geonames.org/2751748","http://vocab.getty.edu/tgn/7263887"
"498","1443","Hengevelde","52.203357505","6.63631431086","http://www.geonames.org/2754389","http://vocab.getty.edu/tgn/7266493"
"499","1444","Markelo","52.2353633402","6.51337170373","http://www.geonames.org/2751161","http://vocab.getty.edu/tgn/7006936"
"500","1445","Aarle-Rixtel","51.5138732775","5.6493989683","http://www.geonames.org/6698718","http://vocab.getty.edu/tgn/1047598"
"501","1446","Beek en Donk","51.5425659856","5.63241844273","http://www.geonames.org/8436503","http://vocab.getty.edu/tgn/1137024"
"502","1447","Lieshout","51.5170065702","5.58938675486","http://www.geonames.org/2751627","http://vocab.getty.edu/tgn/1047916"
"503","1448","Mariahout","51.5440574784","5.57008567273","http://www.geonames.org/2751189","http://vocab.getty.edu/tgn/7269451"
"504","1789","Drouwenerveen","52.9663751875","6.85957790568","http://www.geonames.org/2756548","http://vocab.getty.edu/tgn/7260879"
"505","1449","Beers NB","51.7216627005","5.81870957812","http://www.geonames.org/2759309","http://vocab.getty.edu/tgn/7258340"
"506","1790","Ees","52.8989240192","6.81127476028","http://www.geonames.org/2756329","http://vocab.getty.edu/tgn/7261780"
"507","1450","Cuijk","51.7277861803","5.86930333638","http://www.geonames.org/2757874","http://vocab.getty.edu/tgn/7006847"
"508","1791","Eesergroen","52.8902827477","6.78034801507","http://www.geonames.org/2756327","http://vocab.getty.edu/tgn/7261778"
"509","1451","Haps","51.6923135711","5.86141879061","http://www.geonames.org/2754868","http://vocab.getty.edu/tgn/7262387"
"510","1452","Katwijk NB","51.7509931343","5.86097691025","http://www.geonames.org/2753013","http://vocab.getty.edu/tgn/7264490"
"511","1453","Linden","51.7479480736","5.81735929482","http://www.geonames.org/2755115",
"512","1516","Kronenberg","51.4148445695","5.986073428","http://www.geonames.org/2752228","http://vocab.getty.edu/tgn/7264796"
"513","1454","Sint Agatha","51.708753275","5.90440126824","http://www.geonames.org/2747303","http://vocab.getty.edu/tgn/7270677"
"514","1455","Vianen NB","51.7175677359","5.85396379585","http://www.geonames.org/2745581","http://vocab.getty.edu/tgn/7272426"
"515","1456","Best","51.5136566767","5.39646534907","http://www.geonames.org/2759040","http://vocab.getty.edu/tgn/1047654"
"516","1457","Bergeijk","51.3024815252","5.32631528521","http://www.geonames.org/2759132","http://vocab.getty.edu/tgn/1047646"
"517","1458","Luyksgestel","51.2800058602","5.30448182748","http://www.geonames.org/2751346","http://vocab.getty.edu/tgn/7265505"
"518","1459","Riethoven","51.3589343088","5.38634451168","http://www.geonames.org/2748150","http://vocab.getty.edu/tgn/7267705"
"519","1460","Westerhoven","51.331816449","5.40526787968","http://www.geonames.org/2744731","http://vocab.getty.edu/tgn/7273249"
"520","1461","Bunde","50.9016234381","5.73540536604","http://www.geonames.org/2758111","http://vocab.getty.edu/tgn/1047687"
"521","1462","Geulle","50.9231452674","5.74687377746","http://www.geonames.org/2755557","http://vocab.getty.edu/tgn/7262322"
"522","1463","Meerssen","50.8843067367","5.76214135534","http://www.geonames.org/2751037","http://vocab.getty.edu/tgn/1047941"
"523","1464","Moorveld","50.9152679391","5.76215741268","http://www.geonames.org/2750609","http://vocab.getty.edu/tgn/7270153"
"524","1465","Ulestraten","50.9015935565","5.77909707998","http://www.geonames.org/2745955","http://vocab.getty.edu/tgn/7272847"
"525","1466","Lisse","52.2555555201","4.5458377681","http://www.geonames.org/2751547","http://vocab.getty.edu/tgn/1047919"
"526","1467","Kapelle","51.4787291978","3.95908264325","http://www.geonames.org/7284469","http://vocab.getty.edu/tgn/1047879"
"527","1468","Kloetinge","51.4771193123","3.92017254511","http://www.geonames.org/2752638","http://vocab.getty.edu/tgn/7265917"
"528","1469","Schore","51.4678121407","3.99322883675","http://www.geonames.org/2747483","http://vocab.getty.edu/tgn/7271421"
"529","1470","Wemeldinge","51.5258682076","3.98389182771","http://www.geonames.org/2744839","http://vocab.getty.edu/tgn/1048228"
"530","1471","Winschoten","53.1406395628","7.03499570184","http://www.geonames.org/2744344","http://vocab.getty.edu/tgn/1048247"
"531","1473","Venlo","51.379053592","6.14879960639","http://www.geonames.org/2745641","http://vocab.getty.edu/tgn/7006853"
"532","1474","Tegelen","51.3366895964","6.15066395014","http://www.geonames.org/2746504","http://vocab.getty.edu/tgn/1048143"
"533","3401","Lioessens","53.3895850657","6.10196581389","http://www.geonames.org/2751554","http://vocab.getty.edu/tgn/7264597"
"534","1477","Papendrecht","51.8332370345","4.70334499516","http://www.geonames.org/2748729","http://vocab.getty.edu/tgn/1048041"
"535","1478","Winterswijk","51.9719169218","6.71167886167","http://www.geonames.org/2744332","http://vocab.getty.edu/tgn/7006892"
"536","1479","Winterswijk Meddo","52.0134922647","6.70335751038",,
"537","1480","Winterswijk Huppel","52.0027797536","6.76192867989",,
"538","1792","Eeserveen","52.8766358375","6.76471688451","http://www.geonames.org/2756325","http://vocab.getty.edu/tgn/7261776"
"539","1481","Winterswijk Ratum","51.979130019","6.80431097109",,
"540","1517","Evertsoord","51.4019005954","5.94192500273","http://www.geonames.org/2755961","http://vocab.getty.edu/tgn/7260703"
"541","1518","Muiden","52.3460456452","5.06846798459","http://www.geonames.org/2750569","http://vocab.getty.edu/tgn/1047963"
"542","1482","Winterswijk Kotten","51.9388342104","6.771560271","http://www.geonames.org/2752381","http://vocab.getty.edu/tgn/7264392"
"543","1483","Winterswijk Woold","51.9261303186","6.7149064782","http://www.geonames.org/2744187","http://vocab.getty.edu/tgn/7274659"
"544","1528","Rha","52.0529791989","6.1521919417","http://www.geonames.org/2748203","http://vocab.getty.edu/tgn/7267415"
"545","1484","Winterswijk Miste","51.9409872846","6.66543638073","http://www.geonames.org/2750784","http://vocab.getty.edu/tgn/7269942"
"546","1485","Winterswijk Henxel","51.9817245727","6.7597203949","http://www.geonames.org/2754368","http://vocab.getty.edu/tgn/7266472"
"547","1793","Ellertshaar","52.8954698838","6.74137502122","http://www.geonames.org/2756192","http://vocab.getty.edu/tgn/7263308"
"548","1486","Winterswijk Brinkheurne","51.9536015051","6.750373173","http://www.geonames.org/2758314","http://vocab.getty.edu/tgn/7262652"
"549","1529","Olburgen","52.0440340034","6.13097701958","http://www.geonames.org/2749673","http://vocab.getty.edu/tgn/7270429"
"550","1487","Winterswijk Corle","51.966333522","6.65850746143","http://www.geonames.org/2757915","http://vocab.getty.edu/tgn/7262878"
"551","1488","Hippolytushoef","52.911710479","4.98201203979","http://www.geonames.org/2754050","http://vocab.getty.edu/tgn/1047849"
"552","1489","Den Oever","52.9811153252","5.00542996657","http://www.geonames.org/2757194","http://vocab.getty.edu/tgn/1047714"
"553","1490","Westerland","52.893019855","4.92458396462","http://www.geonames.org/2744720","http://vocab.getty.edu/tgn/7273238"
"554","1491","Raalte","52.3957551937","6.26956753966","http://www.geonames.org/2748371","http://vocab.getty.edu/tgn/1048053"
"555","1492","Heino","52.443091012","6.24574834274","http://www.geonames.org/2754502","http://vocab.getty.edu/tgn/7006942"
"556","1794","Exloërveen","52.8970371402","6.89939329692","http://www.geonames.org/2755948","http://vocab.getty.edu/tgn/7260690"
"557","1493","Mariënheem","52.3800885604","6.32158218425","http://www.geonames.org/2751172","http://vocab.getty.edu/tgn/7269563"
"558","1494","Luttenberg","52.4057050356","6.36519510412","http://www.geonames.org/2751357","http://vocab.getty.edu/tgn/7265516"
"559","1495","Laag Zuthem","52.4592295767","6.18181689243","http://www.geonames.org/2752094","http://vocab.getty.edu/tgn/7265437"
"560","1496","Lierderholthuis","52.4386927186","6.1869910003","http://www.geonames.org/2751637","http://vocab.getty.edu/tgn/7264336"
"561","1497","Broekland","52.3658150222","6.2184108337","http://www.geonames.org/2758250","http://vocab.getty.edu/tgn/7262500"
"562","1498","Heeten","52.3321860465","6.28012165464","http://www.geonames.org/2754621","http://vocab.getty.edu/tgn/7266210"
"563","1499","Nieuw Heeten","52.3219686967","6.32816113807","http://www.geonames.org/2750195","http://vocab.getty.edu/tgn/7267481"
"564","1795","Exloo","52.8843809482","6.86554907676","http://www.geonames.org/2755947","http://vocab.getty.edu/tgn/6001954"
"565","1500","Velp","51.9970526738","5.98564606541","http://www.geonames.org/2745677","http://vocab.getty.edu/tgn/7006887"
"566","1501","Rheden","52.027012042","6.01567749452","http://www.geonames.org/2748201","http://vocab.getty.edu/tgn/1048059"
"567","1502","De Steeg","52.0246100292","6.06623385105","http://www.geonames.org/2757041","http://vocab.getty.edu/tgn/7006894"
"568","1796","Klijndijk","52.8304683527","6.85494479099","http://www.geonames.org/2752648","http://vocab.getty.edu/tgn/7265927"
"569","1503","Ellecom","52.0270025993","6.10038941621","http://www.geonames.org/2756200","http://vocab.getty.edu/tgn/7263316"
"570","1532","Vierakker","52.1017862888","6.24681238705","http://www.geonames.org/2745575","http://vocab.getty.edu/tgn/7272420"
"571","1504","Dieren","52.0514236823","6.08533403915","http://www.geonames.org/2756865","http://vocab.getty.edu/tgn/7006895"
"572","1802","Westdorp","52.9065423899","6.75669486283","http://www.geonames.org/2744801","http://vocab.getty.edu/tgn/7273191"
"573","1505","Spankeren","52.0651260616","6.11026023769","http://www.geonames.org/2746974","http://vocab.getty.edu/tgn/7270995"
"574","1506","Laag-Soeren","52.0705713232","6.05407755905","http://www.geonames.org/2752102","http://vocab.getty.edu/tgn/7265445"
"575","1803","Zandberg","52.9144748601","7.03512560114","http://www.geonames.org/2744094","http://vocab.getty.edu/tgn/7274822"
"576","1507","Hem","52.6597403658","5.18406914065","http://www.geonames.org/2754434","http://vocab.getty.edu/tgn/7266409"
"577","2510","Terkaple","53.0163999431","5.78962349911","http://www.geonames.org/2746440","http://vocab.getty.edu/tgn/7271618"
"578","1508","Hoogkarspel","52.6896953939","5.17687615983","http://www.geonames.org/2753691","http://vocab.getty.edu/tgn/7264408"
"579","1509","Oosterblokker","52.6637308894","5.124855119","http://www.geonames.org/2749496","http://vocab.getty.edu/tgn/7267540"
"580","1510","Oosterleek","52.6358748307","5.20044417596","http://www.geonames.org/2749435","http://vocab.getty.edu/tgn/7267744"
"581","1511","Schellinkhout","52.6304336003","5.12544359739","http://www.geonames.org/2747638","http://vocab.getty.edu/tgn/7271192"
"582","1807","Nieuwpoort","51.9324771069","4.8705492901","http://www.geonames.org/2750146","http://vocab.getty.edu/tgn/7267775"
"583","1512","Venhuizen","52.6622293875","5.229937857","http://www.geonames.org/2745645","http://vocab.getty.edu/tgn/7272361"
"584","1810","Alteveer gem Hoogeveen","52.6831211232","6.50031286495","http://www.geonames.org/2759863","http://vocab.getty.edu/tgn/7258825"
"585","1513","Westwoud","52.6795151198","5.13386263994","http://www.geonames.org/2744603","http://vocab.getty.edu/tgn/7273379"
"586","1514","Wijdenes","52.6362867879","5.16114356814","http://www.geonames.org/2744498","http://vocab.getty.edu/tgn/7273530"
"587","2511","Teroele","52.937846063","5.70281871589","http://www.geonames.org/2746418","http://vocab.getty.edu/tgn/7271596"
"588","1515","Sevenum","51.4016840289","6.02341589638","http://www.geonames.org/2747382","http://vocab.getty.edu/tgn/7270627"
"589","2535","Reduzum","53.1146974216","5.78345099181","http://www.geonames.org/2747938","http://vocab.getty.edu/tgn/1048074"
"590","2536","Sibrandabuorren","53.0590683783","5.73519425415","http://www.geonames.org/2747330","http://vocab.getty.edu/tgn/7270703"
"591","1519","Muiderberg","52.3190446085","5.10796880662","http://www.geonames.org/2750567","http://vocab.getty.edu/tgn/7270111"
"592","1520","Drempt","52.0193252482","6.18646372875","http://www.geonames.org/2756634","http://vocab.getty.edu/tgn/7260621"
"593","1521","Hoog-Keppel","52.0040989447","6.19954825505","http://www.geonames.org/2753689","http://vocab.getty.edu/tgn/7264406"
"594","1522","Laag-Keppel","51.9892878025","6.19696899576","http://www.geonames.org/2752107","http://vocab.getty.edu/tgn/4006014"
"595","1523","Hummelo","52.0056819006","6.24767154245","http://www.geonames.org/2753423","http://vocab.getty.edu/tgn/1047868"
"596","1526","Steenderen","52.0603685755","6.18050980542","http://www.geonames.org/2746794","http://vocab.getty.edu/tgn/1048135"
"597","1527","Baak","52.071636033","6.23825302341","http://www.geonames.org/2759581","http://vocab.getty.edu/tgn/7257106"
"598","1530","Bronkhorst","52.0835934879","6.19445193945","http://www.geonames.org/2758224","http://vocab.getty.edu/tgn/7262617"
"599","1531","Toldijk","52.0424647262","6.2267472891","http://www.geonames.org/2746232","http://vocab.getty.edu/tgn/7271794"
"600","1535","Hengelo (Gld)","52.0540218287","6.33442209256","http://www.geonames.org/2754395","http://vocab.getty.edu/tgn/7266499"
"601","1544","Collendoorn","52.596254807","6.59482478571","http://www.geonames.org/2757928","http://vocab.getty.edu/tgn/7262891"
"602","1545","De Krim","52.6527065933","6.61973356364","http://www.geonames.org/2757396","http://vocab.getty.edu/tgn/1047705"
"603","1546","Dedemsvaart","52.5944615776","6.47527812973","http://www.geonames.org/2757698","http://vocab.getty.edu/tgn/1047709"
"604","1547","Den Velde","52.5939807414","6.70254464933","http://www.geonames.org/2757182","http://vocab.getty.edu/tgn/7261300"
"605","1548","Diffelen","52.5356110773","6.55002638568","http://www.geonames.org/2756848","http://vocab.getty.edu/tgn/7263336"
"606","1549","Gramsbergen","52.608579689","6.67249135337","http://www.geonames.org/2755371","http://vocab.getty.edu/tgn/7260314"
"607","1552","Holtheme","52.6122952524","6.70897797981","http://www.geonames.org/2753867","http://vocab.getty.edu/tgn/7263813"
"608","1812","Fluitenberg","52.7387497723","6.44549459865","http://www.geonames.org/2755882","http://vocab.getty.edu/tgn/7260967"
"609","1813","Hollandscheveld","52.6967213919","6.54238084732","http://www.geonames.org/2753907","http://vocab.getty.edu/tgn/7263509"
"610","1814","Hoogeveen","52.7182368934","6.47409856162","http://www.geonames.org/2753719","http://vocab.getty.edu/tgn/1047858"
"611","1553","Holthone","52.6360788","6.68230957733","http://www.geonames.org/2753865","http://vocab.getty.edu/tgn/7263811"
"612","1557","Lutten","52.6190633205","6.58418310663","http://www.geonames.org/2751359","http://vocab.getty.edu/tgn/7265518"
"613","1554","Hoogenweg","52.5685838444","6.66003560685","http://www.geonames.org/2753709","http://vocab.getty.edu/tgn/7264210"
"614","1555","Kloosterhaar","52.5074763308","6.68338593662","http://www.geonames.org/2752623","http://vocab.getty.edu/tgn/7265902"
"615","1556","Loozen","52.5889437559","6.67142684906","http://www.geonames.org/2751437","http://vocab.getty.edu/tgn/7265036"
"616","1559","Radewijk","52.569378713","6.71419269374","http://www.geonames.org/2748351","http://vocab.getty.edu/tgn/7269387"
"617","1560","Rheeze","52.5494246481","6.57610123044","http://www.geonames.org/2748190","http://vocab.getty.edu/tgn/7267530"
"618","1562","Schuinesloot","52.6529900601","6.56059187079","http://www.geonames.org/2747437","http://vocab.getty.edu/tgn/7270554"
"619","1563","Sibculo","52.4876898794","6.62611601766","http://www.geonames.org/2747347","http://vocab.getty.edu/tgn/7270720"
"620","1564","Slagharen","52.6299659113","6.54345459661","http://www.geonames.org/2747191","http://vocab.getty.edu/tgn/7270828"
"621","1565","Venebrugge","52.5576497065","6.67606807683","http://www.geonames.org/2745653","http://vocab.getty.edu/tgn/7272369"
"622","1566","Rijssen","52.3016093984","6.50486687313","http://www.geonames.org/2748083","http://vocab.getty.edu/tgn/1048065"
"623","1567","Holten","52.2871128006","6.40397070776","http://www.geonames.org/2753874","http://vocab.getty.edu/tgn/1047855"
"624","1568","Maarheeze","51.3197940509","5.63316518432","http://www.geonames.org/2751325","http://vocab.getty.edu/tgn/7265484"
"625","1569","Soerendonk","51.3056598139","5.57191916435","http://www.geonames.org/2747037","http://vocab.getty.edu/tgn/7270930"
"626","1570","Gastel","51.2912996371","5.5436420674","http://www.geonames.org/2755709","http://vocab.getty.edu/tgn/7261697"
"627","1571","Budel","51.2757513453","5.59515319658","http://www.geonames.org/2758166","http://vocab.getty.edu/tgn/1047684"
"628","1572","Budel-Schoot","51.2512979218","5.57005387426","http://www.geonames.org/2758163","http://vocab.getty.edu/tgn/7262596"
"629","1573","Budel-Dorplein","51.2359756069","5.58957198184","http://www.geonames.org/2758164","http://vocab.getty.edu/tgn/7262597"
"630","1591","Nispen","51.4875008011","4.46195941059","http://www.geonames.org/2750035","http://vocab.getty.edu/tgn/1047987"
"631","1574","Varsseveld","51.942712481","6.46753249893","http://www.geonames.org/2745800","http://vocab.getty.edu/tgn/1048175"
"632","1575","Westendorp","51.9507044818","6.41905843674","http://www.geonames.org/2744780","http://vocab.getty.edu/tgn/7273170"
"633","1576","Heelweg","51.9610724425","6.4868884816","http://www.geonames.org/2754702","http://vocab.getty.edu/tgn/7266022"
"634","1577","Terborg","51.9255372286","6.3587202504","http://www.geonames.org/2746468","http://vocab.getty.edu/tgn/1048145"
"635","1582","Varsselder","51.8881401406","6.35170557787","http://www.geonames.org/2745801","http://vocab.getty.edu/tgn/7273078"
"636","1583","Netterden","51.8587928463","6.32243253558","http://www.geonames.org/2750402","http://vocab.getty.edu/tgn/4007753"
"637","1584","Megchelen","51.8459681782","6.38293510461","http://www.geonames.org/2751004","http://vocab.getty.edu/tgn/7269724"
"638","1585","Gendringen","51.8699841305","6.35770560148","http://www.geonames.org/2755599","http://vocab.getty.edu/tgn/1047784"
"639","1586","Voorst","51.8736906224","6.41971467877","http://www.geonames.org/2745298","http://vocab.getty.edu/tgn/7272658"
"640","1587","Breedenbroek","51.8836651251","6.45611349503","http://www.geonames.org/2758382","http://vocab.getty.edu/tgn/7262449"
"641","1588","Roosendaal","51.5292618237","4.45870080573","http://www.geonames.org/2747930","http://vocab.getty.edu/tgn/7006825"
"642","1593","Moerstraten","51.5386751856","4.34201990939","http://www.geonames.org/2750754","http://vocab.getty.edu/tgn/7269912"
"643","1594","Barendrecht","51.8510659078","4.52543677041","http://www.geonames.org/2759426","http://vocab.getty.edu/tgn/1047634"
"644","1595","0","51.7099320768","5.29578693847","http://www.geonames.org/2747351","http://vocab.getty.edu/tgn/7006837"
"645","1596","Rosmalen","51.7244666628","5.3797485907","http://www.geonames.org/2747910","http://vocab.getty.edu/tgn/7006836"
"646","1823","0","51.5030793208","3.85820984237","http://www.geonames.org/2747352",
"647","1597","Hoofddorp","52.3053094204","4.6848345042","http://www.geonames.org/2753801","http://vocab.getty.edu/tgn/7263959"
"648","1599","Oude Meer","52.2896559855","4.78345375332","http://www.geonames.org/2749063","http://vocab.getty.edu/tgn/7269344"
"649","1606","Weteringbrug","52.2254757731","4.64371727334","http://www.geonames.org/2744592","http://vocab.getty.edu/tgn/7273368"
"650","1600","Aalsmeerderbrug","52.2730299565","4.74822945267","http://www.geonames.org/2760132","http://vocab.getty.edu/tgn/7257632"
"651","1607","Buitenkaag","52.2236176081","4.55966556013","http://www.geonames.org/2758138","http://vocab.getty.edu/tgn/7262571"
"652","1601","Rijsenhout","52.2593597658","4.7025917519","http://www.geonames.org/2748086","http://vocab.getty.edu/tgn/7267857"
"653","1825","Kattendijke","51.5189148827","3.94817779107","http://www.geonames.org/2753018","http://vocab.getty.edu/tgn/7264279"
"654","1602","Nieuw-Vennep","52.2638258342","4.63562807444","http://www.geonames.org/2750121","http://vocab.getty.edu/tgn/1047976"
"655","1608","Abbenes","52.2291446438","4.5970123216","http://www.geonames.org/2760073","http://vocab.getty.edu/tgn/7257916"
"656","3402","Metslawier","53.3611694238","6.06908661423","http://www.geonames.org/2750919","http://vocab.getty.edu/tgn/7269680"
"657","1609","Lisserbroek","52.2535514319","4.57756300606","http://www.geonames.org/2751544","http://vocab.getty.edu/tgn/7264587"
"658","3403","Moddergat","53.4014995807","6.06974563013","http://www.geonames.org/2750779","http://vocab.getty.edu/tgn/7269937"
"659","1610","Beinsdorp","52.2878370965","4.59973337033","http://www.geonames.org/2759266",
"660","1611","Zwaanshoek","52.3154072678","4.62259976211","http://www.geonames.org/2743588","http://vocab.getty.edu/tgn/7274420"
"661","1619","Vught","51.6507675785","5.27978193125","http://www.geonames.org/2745154","http://vocab.getty.edu/tgn/1048209"
"662","1612","Cruquius","52.3341433297","4.64738000117","http://www.geonames.org/2757875","http://vocab.getty.edu/tgn/7262966"
"663","1624","Ammerzoden","51.7551958025","5.22166770904","http://www.geonames.org/2759813","http://vocab.getty.edu/tgn/4000658"
"664","1613","Vijfhuizen","52.3581275334","4.68993594519","http://www.geonames.org/2745528","http://vocab.getty.edu/tgn/7272502"
"665","1625","Hedel","51.7537918357","5.25810622704","http://www.geonames.org/2754719","http://vocab.getty.edu/tgn/1047827"
"666","1614","Zwanenburg","52.3740134058","4.7340257248","http://www.geonames.org/2743574","http://vocab.getty.edu/tgn/1048285"
"667","1615","Boesingheliede","52.3528378857","4.72389963629","http://www.geonames.org/2758722","http://vocab.getty.edu/tgn/7257786"
"668","3404","Morra","53.3658288856","6.09348882169","http://www.geonames.org/2750603","http://vocab.getty.edu/tgn/7270147"
"669","1616","Lijnden","52.3444215595","4.74365913217","http://www.geonames.org/2751605","http://vocab.getty.edu/tgn/7264432"
"670","1626","Heerewaarden","51.814409278","5.38351509077","http://www.geonames.org/2754662","http://vocab.getty.edu/tgn/7266123"
"671","1627","Hoenzadriel","51.7498314958","5.31841643165","http://www.geonames.org/2753994","http://vocab.getty.edu/tgn/7266868"
"672","1617","Badhoevedorp","52.3312232915","4.77899867407","http://www.geonames.org/2759524","http://vocab.getty.edu/tgn/1047630"
"673","1628","Hurwenen","51.8123207157","5.30296535095","http://www.geonames.org/2753404","http://vocab.getty.edu/tgn/7265583"
"674","1618","Schiphol","52.3112242727","4.76070105655",,"http://vocab.getty.edu/tgn/7271352"
"675","1620","Cromvoirt","51.669692279","5.23442556324","http://www.geonames.org/2757879","http://vocab.getty.edu/tgn/7262970"
"676","1621","Leidschendam","52.0933513517","4.43490144704","http://www.geonames.org/2751769","http://vocab.getty.edu/tgn/1047910"
"677","1622","Voorburg","52.0762191937","4.36352781736","http://www.geonames.org/2745321","http://vocab.getty.edu/tgn/7006811"
"678","1623","Alem","51.7860147646","5.3481380296","http://www.geonames.org/2759906","http://vocab.getty.edu/tgn/7258527"
"679","1629","Kerkdriel","51.7734084156","5.33064403239","http://www.geonames.org/2752947","http://vocab.getty.edu/tgn/1047882"
"680","1630","Rossum","51.7963764991","5.3112743937","http://www.geonames.org/2747908","http://vocab.getty.edu/tgn/7268580"
"681","1631","Velddriel","51.7682133459","5.29655083797","http://www.geonames.org/2745719","http://vocab.getty.edu/tgn/7272307"
"682","1632","Well","51.7557446613","5.19591856465","http://www.geonames.org/2744864","http://vocab.getty.edu/tgn/7273124"
"683","1634","Een","53.0835970116","6.37889516945","http://www.geonames.org/2756380","http://vocab.getty.edu/tgn/7261614"
"684","1635","Een-West","53.0825858091","6.33179251338","http://www.geonames.org/2756352","http://vocab.getty.edu/tgn/7261803"
"685","1636","Foxwolde","53.1577844408","6.45877896753","http://www.geonames.org/2755850","http://vocab.getty.edu/tgn/7261152"
"686","1645","Peest","53.0548986161","6.49743034497","http://www.geonames.org/2748678","http://vocab.getty.edu/tgn/7268251"
"687","1646","Peize","53.1517348797","6.50101345989","http://www.geonames.org/2748673","http://vocab.getty.edu/tgn/7268246"
"688","1647","Roden","53.134859595","6.42880223485","http://www.geonames.org/2748026","http://vocab.getty.edu/tgn/1048069"
"689","1637","Huis ter Heide","53.0176409244","6.47721398462",,"http://vocab.getty.edu/tgn/7265109"
"690","1638","Langelo","53.0951546618","6.45062314691","http://www.geonames.org/2751943","http://vocab.getty.edu/tgn/7265975"
"691","1648","Roderesch","53.1143118862","6.41897714167","http://www.geonames.org/2748022","http://vocab.getty.edu/tgn/7268135"
"692","1639","Leutingewolde","53.1601013974","6.42760116597","http://www.geonames.org/2751681","http://vocab.getty.edu/tgn/7264164"
"693","1682","Rijs","52.8205024952","5.47672736099","http://www.geonames.org/2748093","http://vocab.getty.edu/tgn/7267864"
"694","1640","Lieveren","53.1123443971","6.46566596281","http://www.geonames.org/2751613","http://vocab.getty.edu/tgn/7264440"
"695","1641","Matsloot","53.1925272138","6.47225611297","http://www.geonames.org/2751091","http://vocab.getty.edu/tgn/7269755"
"696","1642","Nietap","53.1635689868","6.41186609689","http://www.geonames.org/2750380","http://vocab.getty.edu/tgn/7270309"
"697","1643","Nieuw-Roden","53.124549588","6.38360674479","http://www.geonames.org/2750140","http://vocab.getty.edu/tgn/7267769"
"698","1650","Steenbergen","53.1049776195","6.40189658946","http://www.geonames.org/2746802","http://vocab.getty.edu/tgn/7272028"
"699","1644","Norg","53.0738767159","6.46144154128","http://www.geonames.org/2749796","http://vocab.getty.edu/tgn/1047995"
"700","1649","Roderwolde","53.1749151404","6.47104923286","http://www.geonames.org/2748018","http://vocab.getty.edu/tgn/7029492"
"701","1651","Veenhuizen","53.02562657","6.40813426174","http://www.geonames.org/2745764","http://vocab.getty.edu/tgn/1048178"
"702","1652","Westervelde","53.0516492281","6.43012791392","http://www.geonames.org/2744679","http://vocab.getty.edu/tgn/7273325"
"703","1653","Zuidvelde","53.037920844","6.4626694572","http://www.geonames.org/2743649","http://vocab.getty.edu/tgn/7274353"
"704","1683","Ruigahuizen","52.8799191764","5.57054678568","http://www.geonames.org/2747850","http://vocab.getty.edu/tgn/7268867"
"705","1654","Gelselaar","52.1680294118","6.52419958662","http://www.geonames.org/2755609","http://vocab.getty.edu/tgn/7262029"
"706","1655","Geesteren","52.1398170275","6.51778554572","http://www.geonames.org/2755653","http://vocab.getty.edu/tgn/7261858"
"707","1656","Neede","52.1476403647","6.59219486627","http://www.geonames.org/2750460","http://vocab.getty.edu/tgn/1047971"
"708","1657","Rietmolen","52.1531520417","6.6497367156","http://www.geonames.org/2748146","http://vocab.getty.edu/tgn/7267701"
"709","1658","Ruurlo","52.0655771713","6.46485156669","http://www.geonames.org/2747792","http://vocab.getty.edu/tgn/1048081"
"710","1659","Borculo","52.10610813","6.5134657652","http://www.geonames.org/2758626","http://vocab.getty.edu/tgn/1047666"
"711","1660","Haarlo","52.1077311891","6.57057845148","http://www.geonames.org/2754991","http://vocab.getty.edu/tgn/7261952"
"712","1661","Beltrum","52.0622412894","6.56118823853","http://www.geonames.org/2759240","http://vocab.getty.edu/tgn/7258615"
"713","1662","Eibergen","52.0918111894","6.64893579018","http://www.geonames.org/2756295","http://vocab.getty.edu/tgn/1047754"
"714","1663","Rekken","52.0960280628","6.72186536807","http://www.geonames.org/2748249","http://vocab.getty.edu/tgn/7267246"
"715","1664","Amersfoort","52.1667430667","5.38819287293","http://www.geonames.org/2759821","http://vocab.getty.edu/tgn/7006922"
"716","1665","Hoogland","52.1921881258","5.34975196902","http://www.geonames.org/2753686","http://vocab.getty.edu/tgn/7264403"
"717","1666","Hooglanderveen","52.1990001418","5.42669766678","http://www.geonames.org/2753685","http://vocab.getty.edu/tgn/7264402"
"718","1667","Stoutenburg Noord","52.1592819968","5.46556221208",,
"719","1668","Oldenzaal","52.3093359768","6.91627082204","http://www.geonames.org/2749644","http://vocab.getty.edu/tgn/7006937"
"720","1675","Elahuizen","52.9278147253","5.54802213846","http://www.geonames.org/2756235","http://vocab.getty.edu/tgn/7262242"
"721","1669","Deurningen","52.299112469","6.88305689816","http://www.geonames.org/2757006","http://vocab.getty.edu/tgn/7261903"
"722","1670","Beek","50.933144091","5.80553158188","http://www.geonames.org/2759350","http://vocab.getty.edu/tgn/1047637"
"723","1678","Mirns","52.8110358539","5.41741784682","http://www.geonames.org/2750788","http://vocab.getty.edu/tgn/7269946"
"724","1671","Spaubeek","50.9361943651","5.8389862749","http://www.geonames.org/2746964","http://vocab.getty.edu/tgn/7271113"
"725","1672","Maastricht-Airport","50.9156106473","5.77705656331",,
"726","1679","Nijemirdum","52.8485379027","5.58416502212","http://www.geonames.org/2750089","http://vocab.getty.edu/tgn/7267933"
"727","1673","Bakhuizen","52.8682671629","5.45043769636","http://www.geonames.org/2759496","http://vocab.getty.edu/tgn/7257432"
"728","1674","Balk","52.9018662541","5.59049700009","http://www.geonames.org/2759472","http://vocab.getty.edu/tgn/1047632"
"729","1676","Harich","52.8972161148","5.55054546474","http://www.geonames.org/2754831","http://vocab.getty.edu/tgn/7266111"
"730","1677","Kolderwolde","52.8956784462","5.49781915027","http://www.geonames.org/2752536","http://vocab.getty.edu/tgn/7263646"
"731","1684","Sloten","52.9042149482","5.64223142364","http://www.geonames.org/2747131","http://vocab.getty.edu/tgn/1048116"
"732","1685","Sondel","52.8643119767","5.61250035823","http://www.geonames.org/2747014","http://vocab.getty.edu/tgn/7271035"
"733","1686","Wijckel","52.8912927853","5.62169776676","http://www.geonames.org/2744510","http://vocab.getty.edu/tgn/7273542"
"734","1687","Berkel en Rodenrijs","52.0005171338","4.46904519916","http://www.geonames.org/6929992",
"735","1688","Bergschenhoek","51.9821677533","4.51120119417","http://www.geonames.org/2759113","http://vocab.getty.edu/tgn/7259937"
"736","1689","Bleiswijk","52.0225058363","4.53452554221","http://www.geonames.org/2758838","http://vocab.getty.edu/tgn/7257171"
"737","1690","Banholt","50.7922745842","5.81065847093","http://www.geonames.org/2759441","http://vocab.getty.edu/tgn/7257698"
"738","1697","Scheulder","50.8274009024","5.85016879707","http://www.geonames.org/2747602","http://vocab.getty.edu/tgn/7271284"
"739","1691","Bemelen","50.8447713498","5.77928777208","http://www.geonames.org/2759234","http://vocab.getty.edu/tgn/7258609"
"740","1698","Sint Geertruid","50.7943001797","5.77165802161","http://www.geonames.org/2747280","http://vocab.getty.edu/tgn/7270786"
"741","2204","Braamt","51.9247178997","6.26232034432","http://www.geonames.org/2758434","http://vocab.getty.edu/tgn/7258830"
"742","2205","Didam","51.9444527319","6.13778400137","http://www.geonames.org/2756896","http://vocab.getty.edu/tgn/1047718"
"743","1692","Cadier en Keer","50.8277321065","5.76865174492","http://www.geonames.org/2758035","http://vocab.getty.edu/tgn/7262741"
"744","1693","Eckelrade","50.8094153566","5.76286381491","http://www.geonames.org/2756434","http://vocab.getty.edu/tgn/7261324"
"745","1694","Margraten","50.8224936227","5.81627410832","http://www.geonames.org/2751199","http://vocab.getty.edu/tgn/7266044"
"746","1695","Mheer","50.7809515055","5.79130896692","http://www.geonames.org/2750913",
"747","1696","Noorbeek","50.7708233048","5.8219264366","http://www.geonames.org/2750003","http://vocab.getty.edu/tgn/7268195"
"748","1699","Kessel","51.2962051369","6.04207122302","http://www.geonames.org/2752906","http://vocab.getty.edu/tgn/7264724"
"749","1700","Eijsden","50.7785848912","5.71629920885","http://www.geonames.org/2756283","http://vocab.getty.edu/tgn/1047755"
"750","1701","Gronsveld","50.8066682785","5.73130530912","http://www.geonames.org/2755243","http://vocab.getty.edu/tgn/7260872"
"751","1702","Breda","51.5803017311","4.75475531896","http://www.geonames.org/2758401","http://vocab.getty.edu/tgn/7006827"
"752","1703","Bavel","51.5674300769","4.83826466245","http://www.geonames.org/2759373","http://vocab.getty.edu/tgn/7258060"
"753","1704","Ulvenhout","51.5458483594","4.79964641228","http://www.geonames.org/2745940","http://vocab.getty.edu/tgn/1048166"
"754","1705","Prinsenbeek","51.6116663528","4.69312888389","http://www.geonames.org/2748448","http://vocab.getty.edu/tgn/1048049"
"755","1706","Teteringen","51.6166104956","4.81232571539","http://www.geonames.org/2746389","http://vocab.getty.edu/tgn/7271567"
"756","1719","Walem","50.8647871961","5.86722258272","http://www.geonames.org/2745074","http://vocab.getty.edu/tgn/7273766"
"757","1720","Blesdijke","52.8347985705","6.01311306694","http://www.geonames.org/2758828","http://vocab.getty.edu/tgn/7257289"
"758","1721","Boijl","52.9146617088","6.19976825589","http://www.geonames.org/2758453","http://vocab.getty.edu/tgn/7258849"
"759","1707","Katwijk","52.1978047155","4.40210083969","http://www.geonames.org/2753011","http://vocab.getty.edu/tgn/1047881"
"760","1708","Rijnsburg","52.1960326842","4.4483488025","http://www.geonames.org/2748104","http://vocab.getty.edu/tgn/1048064"
"761","1709","Valkenburg","52.1699222034","4.43018871866","http://www.geonames.org/2745872","http://vocab.getty.edu/tgn/7273020"
"762","1711","Beuningen","52.3553238317","7.01439213039","http://www.geonames.org/2759015","http://vocab.getty.edu/tgn/7256333"
"763","1712","Glane","52.2329258028","6.98609729132","http://www.geonames.org/2755497","http://vocab.getty.edu/tgn/7263371"
"764","1713","Losser","52.2652748386","6.99657026164","http://www.geonames.org/2751424","http://vocab.getty.edu/tgn/1047925"
"765","1714","de Lutte","52.3143999514","6.99363646934","http://www.geonames.org/2757320","http://vocab.getty.edu/tgn/7260659"
"766","1715","Overdinkel","52.2409811975","7.0335209386","http://www.geonames.org/2748849","http://vocab.getty.edu/tgn/1048038"
"767","1716","Berg en Terblijt","50.8599425983","5.78566494843","http://www.geonames.org/8592090",
"768","1717","Schin op Geul","50.8474919789","5.86016891371","http://www.geonames.org/2747551","http://vocab.getty.edu/tgn/7271361"
"769","1718","Valkenburg","50.8649901627","5.8242933526","http://www.geonames.org/2745874","http://vocab.getty.edu/tgn/1048172"
"770","1722","De Blesse","52.8458830831","6.03974146243","http://www.geonames.org/2757773","http://vocab.getty.edu/tgn/7262992"
"771","2269","de Woude","52.5477543121","4.76575078975","http://www.geonames.org/2756922","http://vocab.getty.edu/tgn/7262169"
"772","1723","De Hoeve","52.892029006","6.0937944284","http://www.geonames.org/2757530","http://vocab.getty.edu/tgn/7263274"
"773","2270","Limmen","52.5655956809","4.69764863149","http://www.geonames.org/2751592","http://vocab.getty.edu/tgn/1047917"
"774","1724","Langelille","52.8407818567","5.84383813491","http://www.geonames.org/2751947","http://vocab.getty.edu/tgn/7265979"
"775","2274","Oosterwijk","51.8790268288","5.06952683764","http://www.geonames.org/2749398","http://vocab.getty.edu/tgn/7268000"
"776","1725","Munnekeburen","52.8483581173","5.87720548571","http://www.geonames.org/2750555","http://vocab.getty.edu/tgn/7270099"
"777","1735","Oosterstreek","52.8950485896","6.16681089736","http://www.geonames.org/2749412","http://vocab.getty.edu/tgn/7268014"
"778","1726","Nijeholtpade","52.9172170114","6.08084621034","http://www.geonames.org/2750092","http://vocab.getty.edu/tgn/7267936"
"779","1727","Nijeholtwolde","52.9023242691","5.96969096344","http://www.geonames.org/2750091","http://vocab.getty.edu/tgn/7267935"
"780","1728","Nijelamer","52.8915517226","5.9439175162","http://www.geonames.org/2750090","http://vocab.getty.edu/tgn/7267934"
"781","2275","Borgercompagnie","53.1330728549","6.80761258595","http://www.geonames.org/2758618","http://vocab.getty.edu/tgn/7258240"
"782","1729","Nijetrijne","52.8371297791","5.91148660588","http://www.geonames.org/2750076","http://vocab.getty.edu/tgn/7267920"
"783","2276","Tripscompagnie","53.1404960273","6.82875065758","http://www.geonames.org/2746152","http://vocab.getty.edu/tgn/7271842"
"784","1730","Noordwolde","52.8899268184","6.13885110011","http://www.geonames.org/2749807","http://vocab.getty.edu/tgn/1047994"
"785","1731","Oldeholtpade","52.8880292726","6.05012440789","http://www.geonames.org/2749663","http://vocab.getty.edu/tgn/7270419"
"786","1732","Oldeholtwolde","52.9160700654","5.98713057799","http://www.geonames.org/2749662","http://vocab.getty.edu/tgn/7270469"
"787","1733","Oldelamer","52.8748577891","5.90493822224","http://www.geonames.org/2749655","http://vocab.getty.edu/tgn/7267140"
"788","1734","Oldetrijne","52.8526706473","5.94638745803","http://www.geonames.org/2749639","http://vocab.getty.edu/tgn/7267124"
"789","1736","Peperga","52.8540475389","6.04563679797","http://www.geonames.org/2748653","http://vocab.getty.edu/tgn/7268354"
"790","1737","Scherpenzeel","52.8282676803","5.8622213746","http://www.geonames.org/2747606","http://vocab.getty.edu/tgn/7271288"
"791","1738","Slijkenburg","52.8063379422","5.84551545546","http://www.geonames.org/2747163","http://vocab.getty.edu/tgn/7270800"
"792","3139","Venhorst","51.6081007662","5.73154954083","http://www.geonames.org/2745646","http://vocab.getty.edu/tgn/7272362"
"793","1739","Sonnega","52.8644964421","5.97339526614","http://www.geonames.org/2747008","http://vocab.getty.edu/tgn/7271029"
"794","1740","Spanga","52.8147881694","5.87209454069","http://www.geonames.org/2746976","http://vocab.getty.edu/tgn/7270997"
"795","1741","Steggerda","52.860173205","6.08171935262","http://www.geonames.org/2746752","http://vocab.getty.edu/tgn/7272105"
"796","1742","Ter Idzard","52.9112687717","6.03089076953","http://www.geonames.org/2746441","http://vocab.getty.edu/tgn/7271619"
